City_ID,City,Lat,Lng,Max Temp,Humidity,Cloudiness,Wind Speed,Country,Date
0,kyaikkami,16.08,97.5675,28.61,63,5,0.72,MM,1702011258
1,smithers,54.7804,-127.1743,-4.82,86,100,2.06,CA,1702011258
2,port-aux-francais,-49.35,70.2167,4.16,85,94,15.22,TF,1702011258
3,port elizabeth,-33.918,25.5701,19.5,88,40,9.26,ZA,1702011258
4,margaret river,-33.95,115.0667,19.53,51,19,7.75,AU,1702011259
5,iqaluit,63.7506,-68.5145,-15.15,84,0,2.57,CA,1702011259
6,khanty-mansiysk,61.0042,69.0019,-34.94,61,0,3.0,RU,1702011259
7,palmer,42.1584,-72.3287,-0.51,80,100,0.0,US,1702011259
8,bhanvad,21.9264,69.7736,24.69,36,0,3.67,IN,1702011259
9,adamstown,-25.066,-130.1015,22.79,82,90,3.43,PN,1702011259
10,georgetown,5.4112,100.3354,31.96,66,20,3.6,MY,1702011084
11,hinatuan,8.3722,126.3342,29.15,72,58,2.21,PH,1702011260
12,whitehorse,60.7161,-135.0538,-5.57,86,75,4.12,CA,1702011260
13,constantia,44.1833,28.65,-0.62,85,100,7.58,RO,1702011260
14,hasaki,35.7333,140.8333,17.22,31,0,1.29,JP,1702011260
15,road town,18.4167,-64.6167,27.05,73,0,6.21,VG,1702011260
16,essaouira,31.5125,-9.77,15.72,82,46,2.06,MA,1702011261
17,bethel,41.3712,-73.414,0.52,85,0,0.0,US,1702011261
18,papatowai,-46.5619,169.4708,16.98,58,100,3.97,NZ,1702011261
19,ghadamis,30.1337,9.5007,10.75,78,22,2.77,LY,1702011261
20,invercargill,-46.4,168.35,17.61,55,100,4.23,NZ,1702011261
21,kingston,17.997,-76.7936,27.53,85,20,2.57,JM,1702011262
22,quesnel,52.9999,-122.5029,-2.72,93,100,0.0,CA,1702011011
23,hermanus,-34.4187,19.2345,18.95,81,15,2.85,ZA,1702011262
24,college,64.8569,-147.8028,-18.08,77,75,2.57,US,1702011262
25,waitangi,-43.9535,-176.5597,14.34,69,70,1.34,NZ,1702011262
26,toamasina,-18.1667,49.3833,25.0,83,40,3.6,MG,1702011262
27,cabo san lucas,22.8909,-109.9124,24.73,66,0,0.45,MX,1702010993
28,grytviken,-54.2811,-36.5092,-1.36,87,54,4.78,GS,1702011263
29,stanley,54.868,-1.6985,5.16,92,100,2.38,GB,1702011263
30,yeraliyev,43.2,51.65,2.12,61,50,5.76,KZ,1702011263
31,myrina,39.8797,25.0742,9.58,87,75,9.26,GR,1702011263
32,jalna,19.8333,75.8833,23.73,61,1,1.9,IN,1702011263
33,ilulissat,69.2167,-51.1,-5.99,68,75,1.54,GL,1702011264
34,laguna,38.421,-121.4238,9.49,92,0,2.06,US,1702011264
35,qaqortoq,60.7167,-46.0333,1.32,64,100,7.7,GL,1702011264
36,tazovsky,67.4667,78.7,-28.56,94,7,4.86,RU,1702011264
37,kendari,-3.945,122.4989,32.25,58,75,1.68,ID,1702011264
38,ath thawrah,35.8469,38.5443,13.91,81,98,4.28,SY,1702011264
39,kapuskasing,49.4169,-82.4331,-1.95,100,100,4.12,CA,1702011264
40,talnakh,69.4865,88.3972,-33.92,84,4,1.66,RU,1702011264
41,at taj,24.2049,23.2857,13.44,35,0,3.65,LY,1702011265
42,puerto natales,-51.7236,-72.4875,7.19,92,90,1.33,CL,1702011265
43,blackmans bay,-43.0167,147.3167,18.07,73,85,3.86,AU,1702011265
44,lihue,21.9789,-159.3672,25.58,81,75,4.12,US,1702011265
45,zhalantun,48.0,122.7167,-9.31,69,57,7.24,CN,1702011265
46,ribeira grande,38.5167,-28.7,19.87,94,100,9.39,PT,1702011265
47,edinburgh of the seven seas,-37.0676,-12.3116,14.94,84,100,7.32,SH,1702011266
48,haiku-pauwela,20.9219,-156.3051,25.01,73,20,2.06,US,1702011266
49,tanout,14.9709,8.8879,18.08,21,100,3.89,NE,1702011266
50,kharp,66.8014,65.8081,-25.26,91,37,5.04,RU,1702011266
51,thompson,55.7435,-97.8558,-7.91,93,75,1.03,CA,1702011266
52,ta`u,-14.2336,-169.5144,27.14,85,96,5.98,AS,1702011266
53,saipan,15.1355,145.701,30.39,70,40,6.69,MP,1702011267
54,klyuchi,52.2667,79.1667,-22.4,71,97,3.34,RU,1702011267
55,callao,-12.0667,-77.15,20.95,88,20,4.12,PE,1702011267
56,urangan,-25.3,152.9,28.44,62,0,3.58,AU,1702011267
57,puerto ayora,-0.7393,-90.3518,24.19,96,54,0.89,EC,1702011267
58,beroroha,-21.6667,45.1667,30.18,47,4,2.98,MG,1702011268
59,port saint john's,-31.6229,29.5448,23.23,62,3,0.78,ZA,1702011268
60,yeniseysk,58.4497,92.1703,-28.93,89,90,0.97,RU,1702011268
61,cajamarca,-7.1638,-78.5003,13.42,90,92,1.72,PE,1702011268
62,yebaishou,41.3975,119.6408,10.95,27,91,2.4,CN,1702011268
63,gadzhiyevo,69.2551,33.3362,-13.98,95,94,6.67,RU,1702011268
64,longyearbyen,78.2186,15.6401,-0.09,64,20,6.69,SJ,1702011268
65,yuzhno-kurilsk,44.0306,145.8556,3.54,89,100,14.37,RU,1702011269
66,kargasok,59.0556,80.8572,-24.46,91,96,3.58,RU,1702011269
67,la passe,45.5549,-0.8967,11.13,88,100,4.52,FR,1702011269
68,sao joao da barra,-21.6403,-41.0511,23.73,87,4,6.12,BR,1702011269
69,kerikeri,-35.2268,173.9474,21.62,63,0,0.45,NZ,1702011269
70,hamilton,39.1834,-84.5333,9.43,62,75,4.12,US,1702011269
71,sitangkai,4.6628,119.3928,27.92,72,99,1.98,PH,1702011270
72,mil'kovo,55.6078,37.7956,-12.73,99,99,2.69,RU,1702011270
73,port mathurin,-19.6833,63.4167,26.08,73,9,3.68,MU,1702011270
74,praia da vitoria,38.7333,-27.0667,20.14,88,20,13.97,PT,1702011270
75,luau,-10.7073,22.2247,18.79,96,100,1.21,AO,1702011270
76,karhal,27.0003,78.9414,22.69,41,63,1.85,IN,1702011270
77,bogale,16.2833,95.4,31.73,56,55,1.8,MM,1702011270
78,lesosibirsk,58.2358,92.4828,-29.12,89,88,1.03,RU,1702011271
79,saint-joseph,-21.3667,55.6167,28.59,81,51,3.8,RE,1702011271
80,afaahiti,-17.75,-149.2833,24.93,84,100,8.27,PF,1702011271
81,aykhal,66.0,111.5,-27.7,100,99,2.48,RU,1702011271
82,apodi,-5.6642,-37.7989,25.27,73,12,4.48,BR,1702011271
83,atafu village,-8.5421,-172.5159,28.74,73,89,2.31,TK,1702011271
84,west island,-12.1568,96.8225,28.99,74,40,6.69,CC,1702011272
85,san luis de la loma,17.2706,-100.8939,24.91,77,7,1.8,MX,1702011272
86,north bend,43.4065,-124.2243,8.25,100,40,1.54,US,1702011272
87,rawson,-43.3002,-65.1023,11.63,74,0,4.46,AR,1702011272
88,san antonio de pale,-1.4014,5.6325,26.36,79,100,1.11,GQ,1702011272
89,sitka,57.0531,-135.33,2.94,87,20,4.12,US,1702011272
90,balkanabat,39.5108,54.3671,9.19,53,55,2.36,TM,1702011272
91,yellowknife,62.456,-114.3525,-10.71,92,100,3.09,CA,1702011273
92,acarau,-2.8856,-40.12,26.55,79,76,6.08,BR,1702010987
93,ushuaia,-54.8,-68.3,5.81,93,0,4.12,AR,1702011189
94,hatillo,18.4863,-66.8254,25.11,92,4,4.28,PR,1702011273
95,paracale,14.2804,122.7881,29.07,62,47,2.87,PH,1702011273
96,bilibino,68.0546,166.4372,-36.64,99,60,1.23,RU,1702011273
97,punta arenas,-53.15,-70.9167,5.06,87,0,1.54,CL,1702011273
98,chonchi,-42.6128,-73.8092,8.56,95,3,1.34,CL,1702011274
99,midvagur,62.0511,-7.1939,6.46,81,100,11.32,FO,1702011274
100,jabor,5.921,169.6434,27.99,82,80,8.5,MH,1702011274
101,saint-philippe,-21.3585,55.7679,27.28,85,65,3.87,RE,1702011274
102,ingeniero jacobacci,-41.3427,-69.5448,15.08,71,23,4.81,AR,1702011274
103,simanggang,1.2472,111.4528,30.99,70,20,1.03,MY,1702011275
104,carnarvon,-24.8667,113.6333,25.38,49,0,9.11,AU,1702011275
105,port alfred,-33.5906,26.891,19.54,87,8,4.47,ZA,1702011275
106,kununurra,-15.7667,128.7333,36.99,36,36,3.09,AU,1702011275
107,jamestown,42.097,-79.2353,2.62,100,0,2.06,US,1702011194
108,ouadda,8.0777,22.4007,20.31,28,98,1.58,CF,1702011275
109,guiuan,11.0333,125.7247,27.57,80,13,4.1,PH,1702011276
110,crane,31.3974,-102.3501,14.86,67,1,5.74,US,1702011276
111,sao vicente,-23.9631,-46.3919,29.1,26,100,0.89,BR,1702011276
112,bredasdorp,-34.5322,20.0403,19.52,68,0,3.62,ZA,1702011276
113,djambala,-2.5447,14.7533,19.61,96,79,0.6,CG,1702011276
114,iskateley,67.6803,53.1512,-16.1,96,100,3.58,RU,1702011276
115,usinsk,65.9939,57.5281,-23.29,100,100,2.24,RU,1702011276
116,nenjiang,49.1833,125.2167,-11.8,90,100,4.53,CN,1702011276
117,ola,59.5833,151.2833,-6.03,78,100,7.25,RU,1702011277
118,guerrero negro,27.9769,-114.0611,17.99,81,2,7.91,MX,1702011277
119,shimoga,13.9167,75.5667,28.1,57,90,2.77,IN,1702011277
120,lagoa,39.05,-27.9833,18.98,84,100,14.55,PT,1702011277
121,kasongo,-4.45,26.6667,20.25,99,64,0.33,CD,1702011277
122,orkney,-26.9802,26.6727,22.09,46,9,7.34,ZA,1702011277
123,wau,7.7029,27.9953,22.87,25,6,1.95,SS,1702011278
124,mabaruma,8.2,-59.7833,23.21,99,43,0.71,GY,1702011278
125,timmins,48.4669,-81.3331,-3.1,100,100,2.57,CA,1702011278
126,san rafael del yuma,18.4299,-68.6739,25.76,89,0,3.98,DO,1702011278
127,korsakov,46.6328,142.7813,-0.09,61,72,9.99,RU,1702011278
128,kodiak,57.79,-152.4072,-3.27,50,0,4.63,US,1702011278
129,fort morgan,40.2503,-103.8,6.68,39,2,10.8,US,1702011169
130,fisterra,42.9049,-9.2629,13.19,68,19,7.71,ES,1702011279
131,isafjordur,66.0755,-23.124,-2.91,79,50,3.38,IS,1702011279
132,dutsen wai,10.8501,8.199,17.19,23,79,2.67,NG,1702011279
133,vorkuta,67.5,64.0,-24.21,99,100,1.73,RU,1702011279
134,gulf shores,30.246,-87.7008,13.89,100,0,1.54,US,1702011279
135,huarmey,-10.0681,-78.1522,20.22,88,51,4.67,PE,1702011279
136,dryden,49.7833,-92.7503,2.16,75,100,4.63,CA,1702011022
137,st. john's,47.5649,-52.7093,-2.79,81,75,14.4,CA,1702011250
138,wailua homesteads,22.0669,-159.378,25.24,86,75,4.12,US,1702011280
139,cabedelo,-6.9811,-34.8339,26.37,78,49,4.92,BR,1702011280
140,broken hill,-31.95,141.4333,40.98,12,75,14.33,AU,1702011280
141,al kut,32.5147,45.819,18.89,25,68,0.96,IQ,1702011280
142,badger,64.8,-147.5333,-18.13,78,75,2.57,US,1702011280
143,sandnessjoen,66.0217,12.6316,-3.94,80,40,3.09,NO,1702011280
144,olonkinbyen,70.9221,-8.7187,-3.36,74,88,4.57,SJ,1702011280
145,port lincoln,-34.7333,135.8667,25.35,47,100,3.84,AU,1702011281
146,tiksi,71.6872,128.8694,-33.46,100,93,1.17,RU,1702011281
147,berezovyy,51.6667,135.7,-9.82,54,18,1.0,RU,1702011281
148,harper,4.375,-7.7169,25.88,83,31,3.2,LR,1702011281
149,awjilah,29.1081,21.2869,13.26,86,0,7.05,LY,1702011281
150,kone,-21.0595,164.8658,27.12,56,100,4.26,NC,1702011281
151,naracoorte,-36.9579,140.7383,29.0,35,86,5.91,AU,1702011281
152,udachny,66.4167,112.4,-29.2,74,100,1.62,RU,1702011282
153,taksimo,56.3444,114.8794,-25.2,78,100,1.44,RU,1702011282
154,paka,4.6374,103.4368,26.96,94,40,1.03,MY,1702011282
155,sombrio,-29.1139,-49.6167,19.98,90,100,6.67,BR,1702011282
156,pekan,3.4836,103.3996,28.44,75,64,3.9,MY,1702011282
157,torzhok,57.0436,34.9622,-19.2,99,100,2.5,RU,1702011282
158,tabuk,17.4189,121.4443,29.56,66,70,1.56,PH,1702011283
159,katabu,-4.9333,122.5167,31.49,61,92,3.84,ID,1702011283
160,semnan,35.5729,53.3971,10.9,28,37,0.86,IR,1702011283
161,askoy,60.4092,5.226,-1.25,68,0,0.0,NO,1702011283
162,columbia,34.0007,-81.0348,7.51,84,0,0.0,US,1702011038
163,pierre,44.3683,-100.351,10.51,70,75,10.73,US,1702011104
164,usogorsk,63.4106,48.6872,-29.63,99,17,0.47,RU,1702011026
165,puerto colombia,10.9878,-74.9547,27.05,79,33,10.24,CO,1702011284
166,vorgashor,67.5833,63.95,-24.31,99,100,1.64,RU,1702011284
167,albany,42.6001,-73.9662,0.45,90,84,0.44,US,1702011094
168,vernon,50.2581,-119.2691,3.2,88,100,2.68,CA,1702011284
169,nizhnesortymskiy,62.4397,71.7603,-23.46,97,100,6.34,RU,1702011284
170,talcahuano,-36.7167,-73.1167,12.82,88,0,4.12,CL,1702011077
171,kourou,5.1552,-52.6478,25.03,92,33,3.81,GF,1702011284
172,aasiaat,68.7098,-52.8699,-11.01,87,100,1.69,GL,1702011284
173,dongcun,36.7767,121.1597,17.01,40,0,5.28,CN,1702011285
174,juan griego,11.0817,-63.9655,25.61,88,17,4.56,VE,1702011285
175,jerez de garcia salinas,22.65,-103.0,11.81,81,3,2.32,MX,1702011285
176,kushalgarh,23.199,74.4507,24.05,52,2,3.13,IN,1702011285
177,hastings,50.8552,0.5729,9.6,90,100,5.3,GB,1702011285
178,ust-nera,64.5667,143.2,-27.0,99,100,2.48,RU,1702011285
179,lashkar gah,31.5938,64.3716,15.12,17,1,0.79,AF,1702011285
180,sao paulo de olivenca,-3.3783,-68.8725,22.7,99,74,0.94,BR,1702011285
181,pacific grove,36.6177,-121.9166,11.06,91,40,0.45,US,1702011286
182,vadso,70.0744,29.7487,-7.91,79,94,10.8,NO,1702011286
183,macae,-22.3708,-41.7869,25.86,78,0,4.12,BR,1702011078
184,boguchany,58.3814,97.4531,-30.08,88,64,1.34,RU,1702011286
185,san patricio,28.017,-97.5169,22.13,85,80,4.67,US,1702011286
186,rancho palos verdes,33.7445,-118.387,17.53,40,1,4.02,US,1702011136
187,calama,-22.4667,-68.9333,9.27,18,0,5.14,CL,1702011286
188,hanting,36.7708,119.2108,20.42,23,0,3.09,CN,1702011286
189,kolonia,50.9333,6.95,3.23,86,75,5.14,DE,1702011287
190,thunder bay,48.4001,-89.3168,2.99,100,100,5.14,CA,1702011285
191,utrik,11.2278,169.8474,27.68,74,81,9.94,MH,1702011287
192,vilyuchinsk,52.9306,158.4028,-2.85,81,100,1.89,RU,1702011287
193,west end,26.6833,-78.9667,16.99,58,100,5.88,BS,1702011287
194,al hazm,16.1641,44.7769,16.99,39,26,1.8,YE,1702011287
195,hwange,-18.3693,26.5019,27.08,35,44,2.21,ZW,1702011287
196,lebu,-37.6167,-73.65,11.91,87,0,6.72,CL,1702011287
197,kailua-kona,19.6406,-155.9956,25.98,78,75,5.66,US,1702011288
198,tikhvin,59.6451,33.5294,-17.13,94,88,2.94,RU,1702011288
199,lame,10.4415,9.2396,18.05,23,100,0.84,NG,1702011288
200,codrington,-38.2667,141.9667,19.94,68,76,3.34,AU,1702011288
201,sumbawa besar,-8.5,117.4333,32.41,59,37,3.13,ID,1702011288
202,olinda,-8.0089,-34.8553,26.85,78,40,3.09,BR,1702011192
203,horazdovice,49.3207,13.701,-7.56,98,66,1.62,CZ,1702011288
204,geraldton,-28.7667,114.6,26.23,41,0,10.29,AU,1702011188
205,grand falls-windsor,48.9332,-55.6649,-3.05,78,99,2.68,CA,1702011289
206,motygino,58.1831,94.7592,-34.01,95,79,0.45,RU,1702011289
207,ashland,40.8167,-82.2665,7.2,91,21,3.51,US,1702011289
208,zelenogorsk,56.1147,94.5861,-23.15,95,100,1.55,RU,1702011289
209,son la,21.3167,103.9,24.57,56,90,1.26,VN,1702011289
210,villamontes,-21.25,-63.5,21.59,94,100,1.51,BO,1702011289
211,puerto baquerizo moreno,-0.9,-89.6,23.85,89,55,4.22,EC,1702011289
212,margate,51.3813,1.3862,8.26,95,100,2.24,GB,1702011290
213,tralee,52.2704,-9.7026,9.17,87,100,9.06,IE,1702011290
214,port moresby,-9.4431,147.1797,31.68,55,20,6.17,PG,1702011290
215,concordia,-31.393,-58.0209,16.28,85,0,3.4,AR,1702011290
216,tiassale,5.8983,-4.8283,23.85,93,68,0.98,CI,1702011290
217,longboat key,27.4125,-82.659,18.02,54,0,3.09,US,1702011290
218,puerto san jose,13.9256,-90.8244,24.77,76,4,2.07,GT,1702011290
219,tolanaro,-25.0319,46.9987,25.04,73,40,8.23,MG,1702011290
220,susuman,62.7833,148.1667,-21.12,95,100,0.45,RU,1702011291
221,shimoda,34.6667,138.95,15.61,57,20,0.66,JP,1702011291
222,altai,46.3722,96.2583,-12.04,53,0,1.53,MN,1702011291
223,korsor,55.3299,11.1386,0.55,100,100,7.13,DK,1702011291
224,whakatane,-37.9585,176.9854,20.84,73,44,1.79,NZ,1702011291
225,hawaiian paradise park,19.5933,-154.9731,23.73,91,100,2.57,US,1702011291
226,fort bragg,35.139,-79.006,7.12,63,0,1.54,US,1702011291
227,port isabel,26.0734,-97.2086,22.02,85,100,3.09,US,1702011292
228,jose panganiban,14.2906,122.6917,29.18,61,50,2.86,PH,1702011292
229,balabac,7.9868,117.0645,28.29,74,100,2.51,PH,1702011292
230,pisco,-13.7,-76.2167,20.03,77,0,1.54,PE,1702011292
231,puerto deseado,-47.7503,-65.8938,10.35,72,5,6.96,AR,1702011292
232,mossel bay,-34.1831,22.146,17.96,74,0,7.16,ZA,1702011292
233,angleton,29.1694,-95.4319,19.4,82,100,1.54,US,1702011078
234,pandan,14.0453,124.1694,28.38,76,98,4.28,PH,1702011293
235,itoman,26.1247,127.6694,24.21,51,0,5.66,JP,1702011293
236,piranhas,-16.4269,-51.8222,26.19,39,26,2.07,BR,1702011293
237,alofi,-19.0595,-169.9187,28.94,70,18,4.63,NU,1702011293
238,tazacorte,28.629,-17.9293,18.54,68,20,4.63,ES,1702011293
239,bandarbeyla,9.4942,50.8122,25.52,57,4,8.81,SO,1702011293
240,tura,25.5198,90.2201,20.87,73,72,1.24,IN,1702011293
241,waingapu,-9.6567,120.2641,30.92,65,98,2.09,ID,1702011294
242,coquimbo,-29.9533,-71.3436,14.85,94,0,1.54,CL,1702011294
243,pathein,16.7833,94.7333,30.87,61,20,1.42,MM,1702011123
244,sungailiat,-1.85,106.1333,30.78,65,88,2.7,ID,1702011294
245,carroll,39.5501,-77.0164,4.57,75,0,0.89,US,1702011294
246,remire-montjoly,4.9167,-52.2667,25.02,100,100,0.0,GF,1702011295
247,turuntayevo,52.2,107.6167,-19.95,77,99,4.6,RU,1702011295
248,shantou,23.3681,116.7148,21.92,37,0,2.0,CN,1702011156
249,namibe,-15.1961,12.1522,23.33,73,97,2.3,AO,1702011295
250,rongelap,11.1635,166.8941,27.38,82,31,9.69,MH,1702011295
251,fortuna,40.5982,-124.1573,8.14,96,100,0.0,US,1702011295
252,minas de marcona,-15.2119,-75.1103,14.7,83,42,4.33,PE,1702011295
253,zelenogorskiy,55.0333,87.0,-24.33,91,100,2.31,RU,1702011296
254,ankazoabo,-22.2833,44.5167,28.37,53,14,4.64,MG,1702011296
255,hirara,24.8,125.2833,25.15,65,20,5.66,JP,1702011296
256,altamont,42.2068,-121.7372,-0.89,88,75,0.89,US,1702011296
257,bairnsdale,-37.8333,147.6167,31.7,55,100,3.98,AU,1702011296
258,lata,40.1629,-8.3327,12.67,95,88,1.01,PT,1702011296
259,isangel,-19.55,169.2667,29.06,61,75,4.63,VU,1702011296
260,vila velha,-20.3297,-40.2925,25.97,85,20,3.13,BR,1702011048
261,steinbach,50.1667,8.5667,2.01,89,100,2.57,DE,1702011296
262,christchurch,-43.5333,172.6333,20.3,61,68,7.2,NZ,1702011039
263,kabinda,-6.1333,24.4833,19.5,96,100,1.01,CD,1702011297
264,san fernando de apure,7.8878,-67.4724,25.93,78,100,1.87,VE,1702011297
265,nizhneangarsk,55.7833,109.55,-27.22,88,78,4.02,RU,1702011297
266,spearfish,44.4908,-103.8594,5.37,71,100,8.75,US,1702011297
267,zhosaly,45.4878,64.0781,-4.39,37,100,7.69,KZ,1702011297
268,bonthe,7.5264,-12.505,24.97,87,0,1.76,SL,1702011297
269,nova sintra,14.8667,-24.7167,21.7,72,1,3.68,CV,1702011297
270,sitionuevo,10.7774,-74.7205,27.09,83,0,3.6,CO,1702011298
271,hecun,36.5333,114.1111,22.73,11,0,4.62,CN,1702011298
272,panguipulli,-39.6333,-72.3333,10.22,93,0,0.71,CL,1702011298
273,ancud,-41.8697,-73.8203,8.79,91,0,0.65,CL,1702011298
274,kralendijk,12.15,-68.2667,27.99,78,75,6.69,BQ,1702011176
275,ghat,24.9647,10.1728,12.51,41,8,2.04,LY,1702011040
276,uzgen,40.7699,73.3007,0.16,31,100,0.89,KG,1702011298
277,berezovo,63.9381,65.0419,-27.01,96,100,1.9,RU,1702011298
278,forked river,39.8398,-74.1901,4.19,83,100,2.06,US,1702011298
279,illizi,26.4833,8.4667,7.89,43,17,1.57,DZ,1702011299
280,isiro,2.7739,27.616,19.59,98,88,0.38,CD,1702011299
281,cascais,38.6979,-9.4215,15.28,93,74,11.18,PT,1702011299
282,plymouth,41.8334,-70.8328,0.37,84,0,0.0,US,1702011299
283,abhar,36.1468,49.218,6.32,62,92,2.15,IR,1702011299
284,new prague,44.5433,-93.5761,6.04,86,24,5.34,US,1702011275
285,baukau,51.5526,7.2042,4.11,87,100,1.79,DE,1702011300
286,uturoa,-16.7333,-151.4333,26.99,77,59,2.98,PF,1702011300
287,kabala,9.5833,-11.55,19.72,93,0,0.65,SL,1702011300
288,nova vicosa,-17.8919,-39.3719,23.72,91,10,3.59,BR,1702011300
289,chinsali,-10.5414,32.0816,20.16,87,67,0.12,ZM,1702011300
290,malakal,9.5334,31.6605,24.52,27,19,2.12,SS,1702011300
291,redencao,-4.2258,-38.7306,25.04,87,76,1.56,BR,1702011300
292,marsh harbour,26.5412,-77.0636,21.83,54,100,4.31,BS,1702011301
293,buka,40.8108,69.1986,5.85,56,100,1.83,UZ,1702011301
294,mejit,10.2753,170.8646,27.69,81,98,10.68,MH,1702011301
295,urengoy,65.9667,78.3667,-30.03,97,39,4.86,RU,1702011301
296,gillette,44.2911,-105.5022,2.19,79,0,5.14,US,1702011301
297,khandyga,62.6667,135.6,-27.01,99,100,1.53,RU,1702011301
298,kapa'a,22.0752,-159.319,25.99,86,75,4.12,US,1702011302
299,rouissat,31.9243,5.3502,7.04,61,0,0.0,DZ,1702011302
300,savannakhet,16.566,104.751,28.01,51,40,1.03,LA,1702011303
301,shalqar,47.8333,59.6,-11.97,47,97,7.18,KZ,1702011305
302,laojunmiao,39.8333,97.7333,2.69,25,4,3.21,CN,1702011305
303,mount gambier,-37.8333,140.7667,18.42,72,78,3.87,AU,1702011305
304,inari,68.906,27.0288,-10.89,88,100,4.59,FI,1702011306
305,port blair,11.6667,92.75,30.02,70,40,3.09,IN,1702011306
306,nemuro,43.3236,145.575,3.79,53,20,11.3,JP,1702011306
307,selfoss,63.9331,-20.9971,-4.65,59,20,4.62,IS,1702011306
308,san pedro,14.35,121.0167,32.57,67,20,3.6,PH,1702011307
309,petropavlovsk-kamchatsky,53.0452,158.6483,-3.67,77,75,3.58,RU,1702011307
310,paramonga,-10.6667,-77.8333,19.73,90,77,3.9,PE,1702011307
311,ilhabela,-23.7781,-45.3581,23.74,91,100,2.03,BR,1702011307
312,beau vallon,-20.4189,57.6953,28.45,78,40,3.09,MU,1702011307
313,bumba,2.1833,22.4667,21.79,97,99,0.75,CD,1702011308
314,labrador city,52.9463,-66.9114,-10.05,79,100,6.69,CA,1702011244
315,ceres,37.5949,-120.9577,11.0,87,0,2.57,US,1702011067
316,mugia,43.1041,-9.2179,13.28,71,5,7.23,ES,1702011308
317,sinop,41.7711,34.8709,9.52,75,100,3.8,TR,1702011309
318,kill devil hills,36.0307,-75.676,7.77,71,0,3.6,US,1702011125
319,soe,-9.8607,124.284,26.02,67,98,3.19,ID,1702011309
320,sinabang,2.4803,96.3801,28.84,73,99,0.76,ID,1702011309
321,martapura,-3.4167,114.85,31.05,70,40,2.57,ID,1702011309
322,lompoc,34.6391,-120.4579,13.21,81,0,7.6,US,1702011309
323,laboulaye,-34.1266,-63.3912,15.66,73,0,3.58,AR,1702011310
324,baiyin,36.5583,104.2081,6.49,20,99,1.0,CN,1702011310
325,nizhneudinsk,54.9076,99.0276,-22.36,83,87,0.24,RU,1702011310
326,aral,40.5156,81.2636,6.2,28,100,4.79,CN,1702011311
327,yakeshi,49.2833,120.7333,-17.14,94,100,6.81,CN,1702011311
328,tinajo,29.0788,-13.7081,17.49,77,75,3.6,ES,1702011311
329,capiovi,-26.93,-55.0608,20.41,99,95,0.94,AR,1702011311
330,moapa valley,36.5805,-114.4703,14.05,35,41,0.47,US,1702011311
331,crossett,33.1282,-91.9612,10.99,66,65,4.32,US,1702011312
332,lerwick,60.1545,-1.1494,6.0,96,100,15.69,GB,1702011312
333,westport,41.1415,-73.3579,2.4,87,20,1.54,US,1702011312
334,chinhoyi,-17.3667,30.2,22.6,46,23,3.18,ZW,1702011312
335,ifrane,33.3333,-5.25,7.17,51,59,2.89,MA,1702011312
336,dawson creek,55.7666,-120.2362,-11.2,79,0,0.0,CA,1702011313
337,hilo,19.7297,-155.09,23.85,87,100,2.57,US,1702011153
338,antsiranana,-12.2787,49.2917,28.42,65,20,6.17,MG,1702011313
339,vila franca do campo,37.7167,-25.4333,19.23,99,100,8.47,PT,1702011313
340,sulak,43.2734,47.5146,8.96,72,100,9.16,RU,1702011313
341,khartoum,15.5518,32.5324,21.13,26,34,5.34,SD,1702011314
342,saldanha,-33.0117,17.9442,17.03,86,0,3.93,ZA,1702011314
343,hanceville,34.0607,-86.7675,8.7,67,100,1.99,US,1702011314
344,rio grande,-32.035,-52.0986,16.08,67,81,6.31,BR,1702011314
345,bazar-korgon,41.0376,72.7459,2.07,38,100,0.6,KG,1702011315
346,muisne,0.6,-80.0333,25.13,90,71,2.97,EC,1702011315
347,hadibu,12.65,54.0333,25.65,65,16,6.54,YE,1702011315
348,pindobacu,-10.7417,-40.3608,20.94,93,100,1.76,BR,1702011315
349,mohr,54.3528,9.7167,-0.92,98,75,5.14,DE,1702011315
350,debila,33.5167,6.95,8.04,76,0,2.57,DZ,1702011316
351,newman,37.3138,-121.0208,11.13,85,66,0.89,US,1702011316
352,kupang,-10.1667,123.5833,28.32,83,75,3.6,ID,1702011316
353,watsa,3.0372,29.5355,18.73,93,27,0.4,CD,1702011317
354,plastun,44.7561,136.2939,-1.46,42,98,1.0,RU,1702011317
355,klaksvik,62.2266,-6.589,6.51,82,100,13.69,FO,1702011317
356,lhasa,29.65,91.1,2.25,83,100,0.93,CN,1702011317
357,choix,26.7092,-108.3219,19.98,36,0,1.97,MX,1702011318
358,kamloops,50.6665,-120.3192,1.99,90,100,3.6,CA,1702011318
359,campeni,46.3667,23.05,-2.39,95,84,0.72,RO,1702011318
360,manthani,18.65,79.6667,24.96,66,73,3.01,IN,1702011318
361,pyapon,16.2833,95.6833,31.7,55,41,2.44,MM,1702011318
362,el calafate,-50.3408,-72.2768,13.29,64,64,0.56,AR,1702011318
363,conduaga,8.862,117.4893,28.42,77,100,2.09,PH,1702011319
364,kindia,10.0569,-12.8658,20.32,91,6,0.63,GN,1702011319
365,kyzyl-suu,42.3414,78.0056,4.25,43,69,0.18,KG,1702011319
366,nyurba,63.2842,118.3319,-43.32,100,96,1.58,RU,1702011320
367,kasongo-lunda,-6.4667,16.8167,21.25,100,100,0.29,CD,1702011320
368,amahai,-3.3333,128.9167,30.17,66,65,2.63,ID,1702011320
369,hami,42.8,93.45,2.96,37,99,2.99,CN,1702011320
370,gonda city,27.1333,81.9333,23.05,44,0,3.16,IN,1702011320
371,keflavik,64.0049,-22.5624,-0.76,64,0,4.12,IS,1702011320
372,anadyr,64.75,177.4833,-20.72,84,0,10.0,RU,1702011321
373,telsiai,55.9814,22.2472,-6.58,91,99,3.92,LT,1702011321
374,aquin,18.2833,-73.4,24.74,81,3,1.29,HT,1702011321
375,happy valley-goose bay,53.3168,-60.3315,-1.83,59,100,8.23,CA,1702011321
376,nema,57.5067,50.5011,-32.8,100,15,1.39,RU,1702011321
377,nogliki,51.8333,143.1667,-6.48,94,100,6.71,RU,1702011322
378,brejo,-3.6844,-42.7503,25.1,85,70,2.64,BR,1702011322
379,guanambi,-14.2233,-42.7814,22.8,62,26,4.4,BR,1702011322
380,olyokminsk,60.3736,120.4264,-30.69,89,100,2.02,RU,1702011322
381,novyy urgal,51.0736,132.5642,-15.89,79,100,2.02,RU,1702011322
382,luza,60.6308,47.2512,-24.36,94,29,1.29,RU,1702011323
383,saint croix,17.7397,-64.7388,24.98,79,75,2.06,VI,1702011323
384,cannonvale,-20.2833,148.7,27.66,61,42,8.72,AU,1702011323
385,fort st. john,56.2499,-120.8529,-5.06,74,75,3.09,CA,1702011104
386,suva,-18.1416,178.4415,25.71,89,75,2.57,FJ,1702011323
387,bereznik,62.8551,42.7072,-21.73,99,85,1.55,RU,1702011324
388,almazan,41.4865,-2.5309,6.55,85,97,8.22,ES,1702011324
389,banda aceh,5.5577,95.3222,29.8,69,92,4.14,ID,1702011324
390,forster,-32.1667,152.5167,29.65,71,23,8.15,AU,1702011324
391,funafuti,-8.5243,179.1942,30.0,84,40,0.51,TV,1702011324
392,mccook,40.2019,-100.6257,11.03,34,0,6.69,US,1702011324
393,pizarro,4.9533,-77.366,24.83,92,87,1.87,CO,1702011325
394,turkmenbasy,40.0222,52.9552,2.43,80,0,4.12,TM,1702011325
395,avarua,-21.2078,-159.775,25.03,73,100,4.63,CK,1702011325
396,mount pleasant,32.7941,-79.8626,11.1,91,0,1.34,US,1702011088
397,kutum,14.2,24.6667,15.59,19,99,1.99,SD,1702011326
398,yaren,-0.5472,166.916,26.37,86,100,4.49,NR,1702011326
399,amos,48.5669,-78.1162,-5.02,96,100,1.49,CA,1702011326
400,nacala,-14.5428,40.6728,26.62,78,20,3.6,MZ,1702011327
401,weno,7.4515,151.8468,29.97,74,100,5.14,FM,1702011327
402,as sulayyil,20.4607,45.5779,13.14,30,8,2.56,SA,1702011327
403,benguela,-12.5763,13.4055,25.23,91,100,0.98,AO,1702011327
404,cudillero,43.5622,-6.1459,12.03,75,75,4.12,ES,1702011327
405,wanning,18.8003,110.3967,24.69,64,22,2.79,CN,1702011327
406,pyhajarvi,67.0701,27.2176,-11.11,93,100,4.02,FI,1702011328
407,el alto,-4.2714,-81.2147,20.34,82,92,4.27,PE,1702011328
408,pitiquito,30.7,-112.0833,16.92,34,1,0.92,MX,1702011328
409,ocean shores,46.9737,-124.1563,8.86,85,75,1.54,US,1702011167
410,hithadhoo,-0.6,73.0833,27.95,76,91,3.74,MV,1702011329
411,njombe,-9.3333,34.7667,16.75,90,72,2.58,TZ,1702011329
412,ponta delgada,37.7333,-25.6667,19.4,100,75,7.72,PT,1702011329
413,novodvinsk,64.4165,40.8122,-20.7,99,87,1.77,RU,1702011329
414,afua,-0.1567,-50.3867,24.81,94,100,2.15,BR,1702011329
415,sudogda,55.9539,40.8629,-20.74,98,30,2.05,RU,1702011329
416,luderitz,-26.6481,15.1594,17.11,64,0,5.67,NA,1702011329
417,hosakote,14.2769,77.1699,25.88,68,61,3.51,IN,1702011330
418,long beach,33.767,-118.1892,17.38,51,0,2.06,US,1702011330
419,baardheere,2.3446,42.2764,26.51,68,0,4.32,SO,1702011330
420,robore,-18.3333,-59.75,22.42,91,54,1.24,BO,1702011330
421,bam,29.106,58.357,17.49,14,0,0.79,IR,1702011330
422,zabaykal'sk,49.6333,117.3167,-18.7,86,69,8.56,RU,1702011331
423,beckley,37.7782,-81.1882,4.23,54,0,3.6,US,1702011331
424,lucapa,-8.4192,20.7447,19.28,98,91,0.77,AO,1702011332
425,mount isa,-20.7333,139.5,38.87,16,1,6.69,AU,1702011332
426,illapel,-31.6308,-71.1653,18.16,64,7,1.01,CL,1702011332
427,rajapur,25.3833,81.15,22.77,59,0,1.16,IN,1702011332
428,zouerate,22.7187,-12.4521,17.0,47,100,3.25,MR,1702011332
429,dauphin,51.1494,-100.0502,1.08,100,100,4.12,CA,1702011333
430,veliki preslav,43.1667,26.8167,1.25,95,100,3.91,BG,1702011333
431,tarko-sale,64.9225,77.785,-27.14,97,87,5.42,RU,1702011333
432,piti village,13.4626,144.6933,31.49,71,20,7.2,GU,1702011333
433,ambovombe,-25.1667,46.0833,25.61,68,37,5.0,MG,1702011333
434,victor rosales,22.95,-102.7,10.77,87,20,4.1,MX,1702011333
435,eureka,40.8021,-124.1637,8.29,95,13,0.89,US,1702011334
436,carlsbad,33.1581,-117.3506,16.11,89,40,2.06,US,1702011219
437,mirny,62.5353,113.9611,-38.76,65,99,3.13,RU,1702011334
438,vetluzhskiy,58.3902,45.4654,-21.65,98,73,1.34,RU,1702011334
439,nishinoomote,30.7333,131.0,18.31,59,20,2.57,JP,1702011334
440,san blas,21.5167,-105.2667,22.9,80,0,1.18,MX,1702011335
441,obo,5.3998,26.4869,20.85,61,23,0.36,CF,1702011335
442,bechar,31.6167,-2.2167,13.18,41,0,1.03,DZ,1702011335
443,ballina,-28.8667,153.5667,29.32,67,0,5.06,AU,1702011335
444,santana,-0.0583,-51.1817,27.1,89,20,2.06,BR,1702011100
445,island harbour,50.724,-1.2758,9.43,95,66,5.98,GB,1702011335
446,fauske,67.2588,15.3918,-3.98,80,95,4.73,NO,1702011336
447,el naranjo,21.4667,-98.6,18.15,94,74,1.09,MX,1702011336
448,palikir - national government center,6.9248,158.1611,28.41,74,75,1.54,FM,1702011336
449,okhotsk,59.3833,143.3,-2.12,95,100,19.76,RU,1702011336
450,howard springs,-12.497,131.047,34.99,64,53,3.15,AU,1702011336
451,puerto santa,-8.9906,-78.6456,19.11,91,29,3.77,PE,1702011336
452,mandalgovi,45.7625,106.2708,-9.69,31,3,7.01,MN,1702011337
453,ikom,5.9667,8.7063,22.7,89,97,0.15,NG,1702011337
454,beipiao,41.7919,120.7792,9.69,29,100,1.71,CN,1702011337
455,new norfolk,-42.7826,147.0587,18.72,57,92,2.15,AU,1702011337
456,enewetak,11.3474,162.3373,27.75,79,78,9.01,MH,1702011337
457,menongue,-14.6585,17.691,18.7,90,97,0.74,AO,1702011338
458,arcachon,44.5875,-1.0519,12.03,82,0,4.12,FR,1702011338
459,dudinka,69.4058,86.1778,-35.18,99,7,1.79,RU,1702011338
460,twon-brass,4.3151,6.2418,27.18,79,95,4.54,NG,1702011338
461,nogent-sur-seine,48.4167,3.75,6.59,98,100,4.31,FR,1702011338
462,zaozersk,69.4005,32.4476,-14.5,92,96,4.17,RU,1702011338
463,la cruz,23.9167,-106.9,20.54,66,0,1.91,MX,1702011339
464,hurricane,37.1753,-113.2899,9.22,52,53,0.89,US,1702011056
465,upington,-28.4478,21.2561,19.21,34,0,3.09,ZA,1702011339
466,san pedro pochutla,15.7333,-96.4667,23.89,69,27,1.62,MX,1702011339
467,san luis,-33.295,-66.3356,20.31,42,0,6.42,AR,1702011339
468,trinidad,-14.8333,-64.9,25.27,79,70,0.6,BO,1702011339
469,fortaleza,-3.7227,-38.5247,29.48,72,40,6.17,BR,1702011339
470,aroma,15.8167,36.1333,24.0,61,5,2.05,SD,1702011340
471,tondano,1.3038,124.9112,28.05,79,60,0.94,ID,1702011340
472,miyaly,48.8844,53.7836,-8.62,82,92,4.92,KZ,1702011340
473,timbuktu,16.7735,-3.0074,21.04,15,3,4.54,ML,1702011340
474,malango,-2.9627,119.9001,28.54,60,97,1.1,ID,1702011340
475,shahrak,34.1074,64.3052,4.3,20,8,0.51,AF,1702011341
476,chibougamau,49.9168,-74.3659,-25.21,77,20,2.06,CA,1702011341
477,nar'yan-mar,67.6713,53.087,-16.05,96,100,3.58,RU,1702011341
478,papao,-17.75,-149.55,25.82,81,100,8.32,PF,1702011341
479,khenifra,32.9333,-5.6667,12.24,60,44,2.35,MA,1702011341
480,isabela,6.7085,121.9711,30.03,69,43,3.12,PH,1702011341
481,bozoum,6.3193,16.3799,21.47,73,89,1.29,CF,1702011342
482,douentza,14.9951,-2.9517,20.97,16,35,1.53,ML,1702011342
483,bloemfontein,-29.1211,26.214,14.71,88,0,1.54,ZA,1702011320
484,dickinson,29.4608,-95.0513,18.96,87,75,4.63,US,1702011342
485,shitanjing,39.2342,106.3439,5.71,31,3,4.43,CN,1702011342
486,crozon,48.2464,-4.4899,11.06,87,75,5.14,FR,1702011342
487,woodside,37.4299,-122.2539,11.12,87,0,4.12,US,1702011208
488,houghton,47.1219,-88.569,4.71,90,100,4.63,US,1702011343
489,severo-yeniseyskiy,60.3725,93.0408,-28.56,95,99,1.07,RU,1702011343
490,opuwo,-18.0607,13.84,22.98,43,75,0.44,NA,1702011343
491,kavaratti,10.5669,72.642,28.36,67,100,4.15,IN,1702011343
492,santa ana de yacuma,-13.75,-65.4333,26.01,75,31,1.16,BO,1702011344
493,miri,4.4148,114.0089,31.08,66,40,3.09,MY,1702011344
494,arafat,21.3594,39.9664,25.34,50,3,0.91,SA,1702011344
495,walvis bay,-22.9575,14.5053,15.61,88,100,3.09,NA,1702011345
496,bei'an,24.5399,109.533,23.33,34,10,4.39,CN,1702011345
497,namangan,40.9983,71.6726,4.25,93,100,2.06,UZ,1702011345
498,wajir,1.7471,40.0573,26.25,65,0,5.34,KE,1702011345
499,turbat,26.0023,63.044,22.06,30,0,0.2,PK,1702011345
500,gebeit,21.0667,36.3167,19.82,85,4,2.37,SD,1702011345
501,cliza,-17.6,-65.9333,18.94,72,99,1.23,BO,1702011346
502,luanda,-8.8368,13.2343,26.0,85,40,0.51,AO,1702011318
503,champerico,14.3,-91.9167,25.74,76,12,2.05,GT,1702011346
504,flying fish cove,-10.4217,105.6791,27.82,78,100,5.14,CX,1702011346
505,fale old settlement,-9.3852,-171.2468,27.22,84,100,7.98,TK,1702011346
506,bardai,11.65,7.2333,18.13,23,70,3.8,NG,1702011346
507,ujae,8.9322,165.7642,27.71,82,46,9.24,MH,1702011346
508,mhamid,29.82,-5.72,15.54,41,100,0.81,MA,1702011347
509,tamandare,-8.7597,-35.1047,24.83,83,88,3.15,BR,1702011200
510,pucallpa,-8.3791,-74.5539,26.02,83,40,1.54,PE,1702011347
511,sungai raya,0.7,108.9,29.69,70,98,1.79,ID,1702011347
512,basavana bagevadi,16.5833,75.9667,24.76,58,78,3.71,IN,1702011348
513,urzhar,47.093,81.6294,-5.57,54,100,1.44,KZ,1702011348
514,leon,21.1167,-101.6667,13.03,78,58,0.96,MX,1702011207
515,bamboo flat,11.7,92.7167,30.05,70,40,3.09,IN,1702011348
516,nchelenge,-9.3451,28.734,20.77,91,64,1.52,ZM,1702011348
517,lucea,18.451,-78.1736,26.92,75,57,8.38,JM,1702011349
518,fasa,28.9383,53.6482,4.58,52,0,0.0,IR,1702011349
519,itapuranga,-15.5622,-49.9486,23.13,46,6,1.78,BR,1702011228
520,nikolayevsk-on-amure,53.1406,140.73,-7.6,85,100,1.83,RU,1702011349
521,kati,12.7441,-8.0726,18.67,23,0,1.57,ML,1702011349
522,cuyo,10.8525,121.0086,27.44,70,20,1.38,PH,1702011350
523,dawesville,30.9224,-84.0091,8.53,86,0,0.0,US,1702011350
524,moree,-29.4667,149.85,37.77,20,29,3.16,AU,1702011350
525,semirara,12.0697,121.3986,27.94,74,67,8.5,PH,1702011350
526,mar del plata,-38.0023,-57.5575,13.38,82,0,3.13,AR,1702011242
527,san jose,37.3394,-121.895,10.95,85,0,7.6,US,1702011349
528,dame-marie,18.5667,-74.4167,25.83,80,52,5.78,HT,1702011350
529,boyolangu,-8.1181,111.8935,30.2,67,78,4.05,ID,1702011351
530,portland,45.5234,-122.6762,7.57,91,98,2.68,US,1702011167
531,lorengau,-2.0226,147.2712,26.83,86,100,5.36,PG,1702011351
532,zaxo,37.1482,42.7001,13.94,64,92,1.6,IQ,1702011351
533,quellon,-43.1167,-73.6167,8.17,92,3,2.54,CL,1702011351
534,north platte,41.1239,-100.7654,10.94,33,0,13.41,US,1702011351
535,kita,13.0349,-9.4895,21.13,21,3,1.37,ML,1702011352
536,la gi,10.6667,107.7833,28.23,67,100,2.78,VN,1702011352
537,cidreira,-30.1811,-50.2056,19.26,79,95,5.52,BR,1702011072
538,kavieng,-2.5744,150.7967,27.85,79,100,3.26,PG,1702011352
539,fedorovka,53.6314,62.7078,-26.21,90,6,1.9,KZ,1702011352
540,trondheim,63.4305,10.3951,-4.95,90,5,3.54,NO,1702011352
541,filadelfia,39.9523,-75.1638,4.94,85,100,0.0,US,1702011117
542,polonnaruwa,7.9333,81.0,28.93,77,67,1.01,LK,1702011353
543,montbard,47.5833,4.5,5.58,95,100,5.13,FR,1702011353
544,vuktyl,63.8567,57.3094,-24.97,99,99,1.23,RU,1702011353
545,ruidoso,33.3317,-105.673,11.03,23,0,2.57,US,1702011353
546,bosobolo,4.1833,19.9,21.23,97,100,1.13,CD,1702011353
547,batticaloa,7.7102,81.6924,28.54,74,47,2.1,LK,1702011353
548,coahuayana de hidalgo,18.7,-103.6583,23.49,85,12,1.85,MX,1702011353
549,arauquita,7.0292,-71.4281,24.64,72,69,1.16,CO,1702011354
550,northam,51.0333,-4.2167,12.59,91,28,9.03,GB,1702011354
551,pader palwo,2.8006,33.135,24.05,55,27,0.87,UG,1702011354
552,karratha,-20.7377,116.8463,38.94,22,7,6.54,AU,1702011354
553,tsiombe,-25.3,45.4833,26.95,61,61,5.39,MG,1702011354
554,cockburn town,21.4612,-71.1419,24.88,71,100,7.81,TC,1702011075
555,roslavl',53.9528,32.8639,-9.73,92,100,4.57,RU,1702011354
556,igarka,67.4667,86.5833,-31.99,93,43,3.6,RU,1702011355
557,wongsorejo,-7.9908,114.4009,31.3,65,98,1.1,ID,1702011355
558,dwarka,22.2394,68.9678,24.5,43,0,4.82,IN,1702011355
559,le port,-20.9373,55.2919,29.38,86,82,0.86,RE,1702011355
560,kuanda,56.3161,116.0806,-26.69,88,100,2.04,RU,1702011355
