City_ID,City,Lat,Lng,Max Temp,Humidity,Cloudiness,Wind Speed,Country,Date
0,stanley,54.868,-1.6985,4.77,94,75,5.14,GB,1701981874
1,yellowknife,62.456,-114.3525,-10.71,92,100,3.09,CA,1701981874
2,revda,56.801,59.9303,-32.59,97,5,0.44,RU,1701981875
3,hermanus,-34.4187,19.2345,18.89,87,26,4.32,ZA,1701981875
4,ust'-ordynskiy,52.805,104.7508,-29.08,88,10,4.5,RU,1701981875
5,aasiaat,68.7098,-52.8699,-12.14,88,100,1.18,GL,1701982009
6,port-aux-francais,-49.35,70.2167,3.39,89,94,13.98,TF,1701982010
7,seven pagodas,12.6264,80.1722,26.03,83,45,2.92,IN,1701982010
8,tieli,46.95,128.05,-10.13,83,100,4.86,CN,1701982010
9,guerrero negro,27.9769,-114.0611,20.83,62,0,8.59,MX,1701981980
10,iqaluit,63.7506,-68.5145,-16.15,77,20,5.66,CA,1701982010
11,blackmans bay,-43.0167,147.3167,13.07,88,100,1.1,AU,1701981866
12,novodvinsk,64.4165,40.8122,-26.23,97,50,1.73,RU,1701982010
13,khandyga,62.6667,135.6,-30.8,91,100,1.97,RU,1701982010
14,san rafael,-34.6177,-68.3301,30.47,16,1,5.6,AR,1701982011
15,san felipe,10.3399,-68.7425,25.69,81,86,3.22,VE,1701982011
16,talnakh,69.4865,88.3972,-33.5,88,28,1.34,RU,1701982011
17,alvaraes,-3.2208,-64.8042,27.93,92,99,1.03,BR,1701981877
18,muisne,0.6,-80.0333,26.09,84,80,4.15,EC,1701982011
19,mount pearl,47.5166,-52.7813,-3.15,88,100,7.2,CA,1701982011
20,ulanhot,46.0833,122.0833,-12.78,96,45,2.08,CN,1701982011
21,puerto natales,-51.7236,-72.4875,16.06,56,87,2.64,CL,1701981878
22,waitangi,-43.9535,-176.5597,14.9,72,87,2.24,NZ,1701981840
23,vikhorevka,56.1201,101.1636,-37.23,92,10,1.12,RU,1701981878
24,mejit,10.2753,170.8646,27.6,83,99,11.09,MH,1701981878
25,port macquarie,-31.4333,152.9167,22.72,82,46,1.57,AU,1701981648
26,kapa'a,22.0752,-159.319,26.72,80,75,1.54,US,1701981878
27,arraial do cabo,-22.9661,-42.0278,31.98,58,0,7.2,BR,1701981878
28,papatowai,-46.5619,169.4708,14.45,56,99,5.02,NZ,1701981879
29,ust-nera,64.5667,143.2,-35.34,93,100,1.93,RU,1701981879
30,west island,-12.1568,96.8225,25.99,83,40,7.2,CC,1701981879
31,puerto baquerizo moreno,-0.9,-89.6,27.55,74,75,7.72,EC,1701981598
32,rongelap,11.1635,166.8941,27.42,84,10,10.13,MH,1701981879
33,doctor mora,21.1417,-100.3125,11.31,79,100,1.05,MX,1701981879
34,tiksi,71.6872,128.8694,-32.42,99,86,2.36,RU,1701981855
35,dryden,49.7833,-92.7503,2.16,80,100,3.09,CA,1701981880
36,sola,-13.8833,167.55,26.8,81,96,7.6,VU,1701981880
37,muynoq,43.7683,59.0214,1.24,54,100,7.87,UZ,1701981880
38,hamilton,39.1834,-84.5333,14.06,52,0,6.69,US,1701981880
39,thompson,55.7435,-97.8558,-6.91,100,75,1.54,CA,1701981880
40,kingston,17.997,-76.7936,30.53,70,75,3.13,JM,1701981600
41,bonthe,7.5264,-12.505,26.91,79,52,2.42,SL,1701981881
42,wotho,10.1657,166.0102,27.51,82,22,10.33,MH,1701981882
43,adamstown,-25.066,-130.1015,22.86,75,50,5.29,PN,1701981882
44,georgetown,5.4112,100.3354,24.97,94,20,1.03,MY,1701981882
45,iwanai,42.9744,140.5089,-0.6,68,100,9.92,JP,1701981882
46,huron,41.1501,-82.5499,9.69,65,79,4.53,US,1701981883
47,ushuaia,-54.8,-68.3,12.79,62,0,9.77,AR,1701981883
48,vorgashor,67.5833,63.95,-26.06,98,100,2.04,RU,1701981883
49,ribeira grande,38.5167,-28.7,18.22,82,75,7.6,PT,1701981883
50,cabedelo,-6.9811,-34.8339,29.37,74,99,5.0,BR,1701981883
51,shakawe,-18.3667,21.85,30.28,29,88,1.05,BW,1701981883
52,san luis de la loma,17.2706,-100.8939,29.24,63,85,2.13,MX,1701981883
53,dalai,45.5,124.3,-5.75,88,52,3.63,CN,1701981884
54,fort bragg,35.139,-79.006,13.28,37,0,5.66,US,1701981884
55,keflavik,64.0049,-22.5624,1.24,64,0,4.63,IS,1701981884
56,wailua homesteads,22.0669,-159.378,25.97,80,75,1.54,US,1701981884
57,bashtanka,47.4072,32.4387,0.22,98,100,5.9,UA,1701981884
58,egilsstadir,65.2653,-14.3948,-2.05,64,75,6.69,IS,1701981884
59,bilibino,68.0546,166.4372,-37.3,100,76,0.99,RU,1701981884
60,hawaiian paradise park,19.5933,-154.9731,26.05,82,100,4.12,US,1701981885
61,padang,-0.9492,100.3543,24.66,88,86,1.27,ID,1701981605
62,khalkhal,37.6189,48.5258,3.71,70,72,1.93,IR,1701981885
63,port mathurin,-19.6833,63.4167,25.78,77,4,3.55,MU,1701981885
64,manta,-0.95,-80.7333,27.88,78,75,4.63,EC,1701981885
65,saquarema,-22.92,-42.5103,32.08,80,2,3.31,BR,1701981885
66,korop,51.5664,32.9586,-5.43,94,100,5.21,UA,1701981885
67,jinxiang,27.4327,120.6062,12.66,77,1,2.22,CN,1701981886
68,balkanabat,39.5108,54.3671,9.9,60,59,1.37,TM,1701981886
69,trenggalek,-8.05,111.7167,24.78,94,99,1.05,ID,1701981886
70,weno,7.4515,151.8468,25.97,94,100,4.63,FM,1701981886
71,tual,-5.6667,132.75,28.84,70,97,0.6,ID,1701981886
72,toliara,-23.35,43.6667,26.0,62,12,4.27,MG,1701981886
73,dokkum,53.3222,5.997,2.22,92,100,6.17,NL,1701981886
74,fale old settlement,-9.3852,-171.2468,29.2,72,100,3.72,TK,1701981886
75,bodo,67.28,14.405,-2.98,59,40,10.8,NO,1701981887
76,necochea,-38.5473,-58.7368,16.98,60,1,5.82,AR,1701981887
77,gadzhiyevo,69.2551,33.3362,-14.3,96,92,6.57,RU,1701981887
78,kropp,54.4167,9.5167,-0.6,98,100,2.57,DE,1701981813
79,edinburgh of the seven seas,-37.0676,-12.3116,14.88,84,100,6.98,SH,1701981887
80,canmore,51.0834,-115.3521,0.06,93,100,1.54,CA,1701981770
81,mahibadhoo,3.7833,72.9667,27.15,79,100,9.45,MV,1701981887
82,mao,39.8885,4.2658,16.31,77,75,6.17,ES,1701981887
83,parkano,62.0167,23.0167,-7.55,95,100,3.73,FI,1701981888
84,hede,33.7681,120.2517,9.42,64,0,4.14,CN,1701981888
85,albany,42.6001,-73.9662,-0.46,85,99,1.18,US,1701981888
86,ierapetra,35.01,25.7353,17.86,57,77,1.34,GR,1701981888
87,lugovoy,42.9472,72.7644,-0.1,59,100,1.36,KZ,1701981888
88,airway heights,47.6446,-117.5933,6.21,76,75,7.72,US,1701981888
89,invercargill,-46.4,168.35,14.49,58,93,3.9,NZ,1701981888
90,aral,40.5156,81.2636,2.89,37,14,3.88,CN,1701981888
91,mamuju,-2.6748,118.8885,24.66,95,100,2.45,ID,1701981889
92,pumiao,22.75,108.4833,12.22,62,73,2.34,CN,1701981889
93,grytviken,-54.2811,-36.5092,-0.14,89,56,6.18,GS,1701981837
94,port elizabeth,-33.918,25.5701,20.05,94,0,1.03,ZA,1701981889
95,tolanaro,-25.0319,46.9987,22.04,88,75,5.14,MG,1701981889
96,avarua,-21.2078,-159.775,26.03,73,75,8.23,CK,1701981889
97,krapkowice,50.4752,17.9654,-1.61,98,100,1.12,PL,1701981889
98,dem'yanovo,60.3511,47.0842,-22.24,96,27,1.28,RU,1701981889
99,bethel,41.3712,-73.414,2.98,74,100,3.6,US,1701981890
100,sao felix do xingu,-6.6447,-51.995,27.64,71,72,2.08,BR,1701981890
101,irondequoit,43.2134,-77.5797,3.49,84,100,3.6,US,1701981890
102,puerto lempira,15.2667,-83.7667,31.08,70,40,3.09,HN,1701981890
103,bredasdorp,-34.5322,20.0403,18.46,86,0,5.12,ZA,1701981890
104,cidade velha,14.9167,-23.6167,24.26,73,75,7.2,CV,1701981890
105,hohhot,40.8106,111.6522,-5.84,63,0,2.0,CN,1701981890
106,yanggu,36.1106,115.7753,9.17,46,0,3.08,CN,1701981891
107,sisimiut,66.9395,-53.6735,-5.07,70,100,2.69,GL,1701981891
108,cacapava do sul,-30.5122,-53.4914,21.83,74,54,4.12,BR,1701981891
109,namtsy,62.7161,129.6658,-35.76,90,100,1.91,RU,1701981891
110,greenville,35.6127,-77.3663,12.09,43,0,2.57,US,1701981871
111,mirny,62.5353,113.9611,-43.76,64,71,0.97,RU,1701981891
112,camiri,-20.05,-63.5167,22.88,88,100,0.0,BO,1701981891
113,rikaze,29.25,88.8833,-1.28,92,90,0.58,CN,1701981892
114,fort mcmurray,56.7268,-111.381,-0.23,69,0,4.12,CA,1701981892
115,isafjordur,66.0755,-23.124,-0.97,75,94,5.34,IS,1701981892
116,margaret river,-33.95,115.0667,13.42,75,1,4.74,AU,1701981842
117,tura,25.5198,90.2201,15.92,96,100,2.08,IN,1701981892
118,homer,59.6425,-151.5483,1.93,74,100,2.24,US,1701981892
119,colonia,50.9333,6.95,2.68,82,20,4.12,DE,1701981892
120,korla,41.7597,86.1469,2.92,48,98,5.88,CN,1701981892
121,tazovsky,67.4667,78.7,-25.33,96,96,4.93,RU,1701981892
122,funafuti,-8.5243,179.1942,29.0,89,75,5.14,TV,1701981893
123,flying fish cove,-10.4217,105.6791,24.82,88,75,2.06,CX,1701981893
124,sinjai,-5.1241,120.253,24.56,89,100,1.13,ID,1701981893
125,kayyerkan,69.3786,87.7439,-33.51,98,38,1.53,RU,1701981893
126,romblon,12.5751,122.2708,27.29,73,96,7.07,PH,1701981893
127,afaahiti,-17.75,-149.2833,26.93,83,93,8.81,PF,1701981893
128,timimoun,29.2639,0.231,18.66,41,100,2.66,DZ,1701981730
129,green,40.9459,-81.4832,8.41,65,40,6.17,US,1701981894
130,bojnurd,37.4747,57.329,5.97,56,0,1.03,IR,1701981894
131,kittila,67.6647,24.8936,-9.92,92,100,5.14,FI,1701981894
132,lucapa,-8.4192,20.7447,19.46,97,100,1.06,AO,1701981894
133,dosso,13.049,3.1937,25.39,11,100,4.31,NE,1701981894
134,prince albert,53.2001,-105.7677,1.97,93,100,4.12,CA,1701981894
135,ola,59.5833,151.2833,-10.04,78,100,6.8,RU,1701981894
136,nemuro,43.3236,145.575,1.08,61,65,13.73,JP,1701981894
137,taitung city,22.7583,121.1444,18.57,72,99,2.88,TW,1701981895
138,wynyard,-41.0,145.7167,14.45,65,100,3.46,AU,1701981895
139,chonchi,-42.6128,-73.8092,20.56,48,0,0.96,CL,1701981895
140,novoutkinsk,56.993,59.5571,-33.59,98,5,0.35,RU,1701981895
141,rio grande,-32.035,-52.0986,24.06,78,89,11.26,BR,1701981753
142,vanimo,-2.6741,141.3028,25.96,90,100,4.16,PG,1701981895
143,toamasina,-18.1667,49.3833,23.98,80,96,3.56,MG,1701981896
144,horta,38.5333,-28.6333,17.8,86,75,7.6,PT,1701981896
145,dudinka,69.4058,86.1778,-24.62,98,16,4.92,RU,1701981896
146,moldava nad bodvou,48.6143,20.9996,2.67,80,75,3.6,SK,1701981896
147,puerto ayora,-0.7393,-90.3518,29.98,93,98,2.24,EC,1701981870
148,utrik,11.2278,169.8474,27.55,81,40,10.54,MH,1701981896
149,ta`u,-14.2336,-169.5144,27.26,84,68,5.82,AS,1701981896
150,xam nua,20.4197,104.0439,13.77,93,40,0.77,LA,1701981896
151,faya-largeau,17.9257,19.1043,21.99,18,66,3.41,TD,1701981897
152,udachny,66.4167,112.4,-25.31,75,100,1.36,RU,1701981843
153,yutan,28.25,112.55,12.02,55,17,2.65,CN,1701981897
154,el calafate,-50.3408,-72.2768,16.84,42,48,2.81,AR,1701981897
155,ad dabbah,18.05,30.95,20.61,21,9,4.43,SD,1701981897
156,enewetak,11.3474,162.3373,27.71,79,100,9.79,MH,1701981897
157,kill devil hills,36.0307,-75.676,9.43,49,0,4.63,US,1701981897
158,pangody,65.85,74.4859,-20.15,98,100,5.75,RU,1701981897
159,fortuna,40.5982,-124.1573,13.7,85,40,0.89,US,1701981897
160,waingapu,-9.6567,120.2641,26.46,85,89,2.03,ID,1701981898
161,mil'kovo,55.6078,37.7956,-11.78,100,98,1.81,RU,1701981898
162,ciudad lazaro cardenas,17.9583,-102.2,30.53,53,35,2.0,MX,1701981805
163,lompoc,34.6391,-120.4579,21.5,53,0,7.2,US,1701981898
164,iaciara,-14.0958,-46.6317,32.09,22,1,2.18,BR,1701981898
165,poso,-1.3959,120.7524,25.23,87,100,1.31,ID,1701981898
166,linxia chengguanzhen,35.6003,103.2064,2.16,25,28,1.93,CN,1701981898
167,formigine,44.573,10.847,6.93,79,2,0.89,IT,1701981899
168,olonkinbyen,70.9221,-8.7187,-1.8,77,9,5.43,SJ,1701981844
169,freetown,8.484,-13.2299,26.83,78,1,2.94,SL,1701981899
170,whitehorse,60.7161,-135.0538,-3.57,79,75,7.2,CA,1701981873
171,robertsport,6.7533,-11.3686,27.58,79,42,3.18,LR,1701981899
172,cafayate,-26.073,-65.9761,22.02,56,94,4.87,AR,1701981899
173,road town,18.4167,-64.6167,29.05,70,20,1.54,VG,1701981899
174,panaba,21.2833,-88.2667,25.87,59,91,3.27,MX,1701981899
175,college,64.8569,-147.8028,-18.01,81,20,3.6,US,1701981899
176,shimoda,34.6667,138.95,10.41,63,0,1.8,JP,1701981900
177,roma,43.2128,-75.4557,1.71,91,100,2.24,US,1701981900
178,anadyr,64.75,177.4833,-20.72,77,20,11.0,RU,1701981900
179,el nido,11.1858,119.3956,27.74,78,92,6.26,PH,1701981900
180,longyearbyen,78.2186,15.6401,-2.09,69,20,9.26,SJ,1701981900
181,rabo de peixe,37.8,-25.5833,17.77,99,75,4.63,PT,1701981900
182,trincomalee,8.5711,81.2335,27.04,82,100,3.13,LK,1701981900
183,itoman,26.1247,127.6694,17.01,72,0,3.6,JP,1701981901
184,palikir - national government center,6.9248,158.1611,28.41,70,100,7.2,FM,1701981901
185,natal,-5.795,-35.2094,28.36,74,40,6.17,BR,1701981806
186,angra do heroismo,38.65,-27.2167,18.4,84,40,1.34,PT,1701981666
187,kayangel,8.0823,134.7173,28.09,76,38,5.31,PW,1701981902
188,atafu village,-8.5421,-172.5159,29.02,74,63,2.57,TK,1701981902
189,luganville,-15.5333,167.1667,26.48,86,100,4.5,VU,1701981903
190,bodaybo,57.8506,114.1933,-32.02,98,100,0.71,RU,1701981904
191,kongoussi,13.3258,-1.5347,25.99,11,63,4.06,BF,1701981904
192,yulinshi,38.2906,109.7494,2.74,36,11,3.42,CN,1701981905
193,jamestown,42.097,-79.2353,4.2,78,100,3.09,US,1701981870
194,punta arenas,-53.15,-70.9167,15.01,62,0,4.63,CL,1701981906
195,klyuchi,52.2667,79.1667,-21.23,71,92,3.63,RU,1701981906
196,maine soroa,13.2114,12.0241,22.5,16,99,3.43,NE,1701981907
197,luderitz,-26.6481,15.1594,16.95,81,0,6.41,NA,1701981907
198,ha'il,27.5219,41.6907,16.01,48,0,2.06,SA,1701981907
199,kadnikov,59.5022,40.338,-18.43,99,95,1.06,RU,1701981908
200,clarkston heights-vineland,46.3874,-117.083,12.47,45,75,7.72,US,1701981908
201,crescent city,41.756,-124.2018,11.09,85,40,5.66,US,1701981809
202,remire-montjoly,4.9167,-52.2667,29.02,79,40,5.14,GF,1701981909
203,tromso,69.6496,18.957,-3.99,58,0,8.23,NO,1701981909
204,haiku-pauwela,20.9219,-156.3051,26.13,66,40,3.6,US,1701981909
205,timra,62.487,17.3257,-7.18,93,100,1.54,SE,1701981909
206,tremonton,41.7119,-112.1655,7.81,61,40,4.92,US,1701981910
207,itamaraca,-7.7478,-34.8256,28.03,75,100,4.41,BR,1701981910
208,pacific grove,36.6177,-121.9166,16.33,71,0,3.6,US,1701981910
209,loiza,18.4313,-65.8802,29.34,74,40,4.12,PR,1701981911
210,bani walid,31.7566,13.9942,12.38,71,2,4.24,LY,1701981911
211,sinabang,2.4803,96.3801,26.06,84,100,0.16,ID,1701981911
212,east ballina,-28.8667,153.5833,21.56,75,1,1.06,AU,1701981911
213,dwarka,22.2394,68.9678,23.05,58,0,4.17,IN,1701981912
214,kamaishi,39.2667,141.8833,6.09,59,24,4.26,JP,1701981912
215,baoying,33.2292,119.3092,10.63,61,0,3.71,CN,1701981912
216,susuman,62.7833,148.1667,-32.79,96,100,0.45,RU,1701981913
217,barreirinhas,-2.7469,-42.8264,27.36,78,53,4.84,BR,1701981771
218,codrington,-38.2667,141.9667,24.41,44,99,3.92,AU,1701981913
219,alta,69.9689,23.2717,-8.41,67,0,4.63,NO,1701981913
220,howard springs,-12.497,131.047,25.95,95,89,1.22,AU,1701981914
221,hasaki,35.7333,140.8333,7.22,39,0,1.64,JP,1701981914
222,penzance,50.1186,-5.5371,11.38,83,46,11.37,GB,1701981914
223,palangkaraya,-2.2,113.8333,22.49,97,99,0.39,ID,1701981914
224,tralee,52.2704,-9.7026,8.14,87,40,5.66,IE,1701981915
225,"laikit, laikit ii (dimembe)",1.4792,124.9735,22.47,100,40,0.51,ID,1701981915
226,viedma,-40.8135,-62.9967,20.25,35,4,7.7,AR,1701981916
227,vung tau,10.346,107.0843,25.23,83,100,4.52,VN,1701981916
228,mata-utu,-13.2816,-176.1745,28.34,80,48,6.2,WF,1701981916
229,oranjemund,-28.55,16.4333,16.61,92,1,2.65,NA,1701981916
230,amga,60.8953,131.9608,-32.94,99,100,1.38,RU,1701981916
231,port saint john's,-31.6229,29.5448,20.99,78,11,3.31,ZA,1701981917
232,aksu,41.1231,80.2644,2.78,36,100,0.8,CN,1701981917
233,saint-pierre,-21.3393,55.4781,24.76,88,75,1.03,RE,1701981917
234,tangalle,6.024,80.7911,24.93,91,26,1.09,LK,1701981918
235,porto belo,-27.1578,-48.5531,26.65,88,100,0.85,BR,1701981918
236,nema,57.5067,50.5011,-31.15,100,8,1.41,RU,1701981918
237,malango,-2.9627,119.9001,20.23,97,100,1.11,ID,1701981919
238,sitka,57.0531,-135.33,2.94,87,75,4.12,US,1701981919
239,badger,64.8,-147.5333,-18.05,82,20,3.6,US,1701981919
240,at-bashi,41.1702,75.8106,-5.2,57,29,0.99,KG,1701981919
241,kertih,4.5141,103.4483,24.01,100,100,1.03,MY,1701981919
242,lushun,38.8,121.2667,7.12,79,1,3.37,CN,1701981920
243,ilulissat,69.2167,-51.1,-2.99,54,20,0.0,GL,1701981920
244,tsiombe,-25.3,45.4833,22.58,80,68,7.76,MG,1701981920
245,marquette,46.5333,-87.6335,5.14,78,72,1.98,US,1701981781
246,mount gambier,-37.8333,140.7667,22.67,50,95,3.78,AU,1701981891
247,bichura,50.5881,107.6022,-19.29,81,100,5.32,RU,1701981921
248,muli,2.9167,73.5667,26.35,86,100,7.65,MV,1701981921
249,tarko-sale,64.9225,77.785,-22.22,98,100,6.19,RU,1701981922
250,ratnagiri,16.9833,73.3,23.79,76,11,1.85,IN,1701981922
251,sosnogorsk,63.6023,53.8817,-31.92,100,34,0.45,RU,1701981922
252,khamis mushait,18.3064,42.7292,14.34,33,0,3.09,SA,1701981922
253,diebougou,10.9667,-3.25,28.61,15,80,2.02,BF,1701981923
254,saltburn-by-the-sea,54.5824,-0.9737,5.57,95,100,5.81,GB,1701981923
255,qaqortoq,60.7167,-46.0333,3.52,54,100,6.0,GL,1701981923
256,atamyrat,37.8357,65.2106,9.94,39,100,0.47,TM,1701981923
257,isiolo,0.3546,37.5822,19.43,72,0,2.05,KE,1701981924
258,motueka,-41.1333,173.0167,19.5,49,15,0.93,NZ,1701981924
259,sharanga,57.1775,46.5396,-27.7,99,38,1.67,RU,1701981924
260,saipan,15.1355,145.701,27.39,83,75,6.17,MP,1701981924
261,kone,-21.0595,164.8658,25.65,55,100,3.33,NC,1701981924
262,alofi,-19.0595,-169.9187,27.94,78,40,4.63,NU,1701981925
263,campbell river,50.0163,-125.2446,5.33,93,75,4.12,CA,1701981771
264,parsabad,39.6482,47.9174,10.18,87,75,6.17,IR,1701981925
265,alibag,18.6411,72.8792,26.04,70,1,2.57,IN,1701981925
266,ilhabela,-23.7781,-45.3581,26.42,86,72,3.03,BR,1701981926
267,yuzhno-kurilsk,44.0306,145.8556,3.54,89,99,13.08,RU,1701981926
268,kingscliff,-28.2667,153.5667,24.97,88,7,1.54,AU,1701981927
269,vila franca do campo,37.7167,-25.4333,18.27,99,97,3.42,PT,1701981904
270,ancenis,47.3667,-1.1667,12.11,96,100,4.37,FR,1701981927
271,laixi,36.8592,120.5269,7.05,70,0,3.3,CN,1701981928
272,lerwick,60.1545,-1.1494,6.0,75,100,15.37,GB,1701981902
273,leninskoye,41.7589,69.3864,4.75,70,100,1.16,KZ,1701981928
274,liman,48.9884,37.8023,-2.47,79,100,7.05,UA,1701981928
275,vila velha,-20.3297,-40.2925,28.97,77,20,9.26,BR,1701981929
276,pokhara,28.2333,83.9833,13.43,85,68,1.2,NP,1701981725
277,vilyuchinsk,52.9306,158.4028,-5.85,78,100,1.96,RU,1701981929
278,carnarvon,-24.8667,113.6333,20.8,71,0,10.06,AU,1701981929
279,nicoya,10.1483,-85.452,29.55,64,2,5.17,CR,1701981930
280,mhamid,29.82,-5.72,18.26,33,100,0.62,MA,1701981930
281,taybad,34.74,60.7756,13.05,21,100,2.88,IR,1701981930
282,lebu,-37.6167,-73.65,15.1,78,2,6.99,CL,1701981930
283,usogorsk,63.4106,48.6872,-29.63,99,13,0.57,RU,1701981931
284,bamboo flat,11.7,92.7167,25.05,94,20,1.03,IN,1701981931
285,turinsk,58.0458,63.696,-32.97,98,5,1.6,RU,1701981931
286,dera bugti,29.0307,69.151,14.5,28,0,2.14,PK,1701981932
287,hithadhoo,-0.6,73.0833,27.39,78,96,4.0,MV,1701981882
288,lospalos,-8.5186,127.0025,23.06,85,67,0.14,TL,1701981932
289,labytnangi,66.6572,66.4183,-21.43,85,100,3.91,RU,1701981932
290,priargunsk,50.3691,119.1012,-18.04,93,100,4.45,RU,1701981932
291,labrador city,52.9463,-66.9114,-11.05,79,100,3.09,CA,1701981783
292,carloforte,39.145,8.3058,14.39,65,52,1.34,IT,1701981933
293,jiutai,44.1525,125.8328,0.19,72,56,5.87,CN,1701981933
294,bardai,11.65,7.2333,22.19,19,76,3.41,NG,1701981933
295,zhukovo,55.0318,36.744,-16.9,98,99,1.95,RU,1701981934
296,siracusa,37.0881,15.2792,11.77,55,21,3.04,IT,1701981934
297,narvik,68.4384,17.4272,-3.33,73,98,4.79,NO,1701981717
298,nacozari de garcia,30.3742,-109.6908,24.17,13,46,4.32,MX,1701981934
299,sandnessjoen,66.0217,12.6316,-1.94,86,75,2.06,NO,1701981935
300,lubang,13.8584,120.124,27.46,78,13,8.57,PH,1701981935
301,caras,-9.0467,-77.8114,19.22,85,100,2.49,PE,1701981935
302,callao,-12.0667,-77.15,22.16,68,75,4.63,PE,1701981936
303,port alfred,-33.5906,26.891,20.66,93,21,0.89,ZA,1701981936
304,san patricio,28.017,-97.5169,24.92,55,100,7.06,US,1701981936
305,zhangjiakou,40.81,114.8794,0.69,51,14,0.34,CN,1701981937
306,crane,31.3974,-102.3501,24.05,22,1,4.43,US,1701981938
307,katsuura,35.1333,140.3,10.77,50,0,3.83,JP,1701981938
308,queenstown,-31.8976,26.8753,17.89,64,58,1.17,ZA,1701981938
309,la mohammedia,36.6745,10.1563,13.61,77,0,1.97,TN,1701981939
310,rota,36.6224,-6.3586,17.07,88,20,2.06,ES,1701981939
311,zhuanghe,39.7008,122.9911,5.68,97,44,1.87,CN,1701981939
312,alo,7.4178,6.7371,29.29,34,100,1.1,NG,1701981879
313,san ignacio,17.1561,-89.0714,29.08,65,40,2.06,BZ,1701981939
314,loen,7.7601,168.2307,27.9,84,95,9.75,MH,1701981939
315,souillac,-20.5167,57.5167,26.21,89,75,0.0,MU,1701981940
316,pekanbaru,0.5333,101.45,24.18,100,100,0.51,ID,1701981940
317,mangrol,21.1167,70.1167,22.15,56,0,5.02,IN,1701981940
318,lubango,-14.9172,13.4925,15.92,94,100,2.57,AO,1701981761
319,fauske,67.2588,15.3918,-2.98,81,94,4.8,NO,1701981940
320,kapuskasing,49.4169,-82.4331,-0.95,93,100,2.57,CA,1701981858
321,iskateley,67.6803,53.1512,-14.43,96,100,3.58,RU,1701981941
322,jora,26.3333,77.8167,17.27,58,0,0.3,IN,1701981941
323,cockburn town,21.4612,-71.1419,25.22,68,100,8.23,TC,1701981941
324,brioude,45.1667,3.4167,6.06,67,100,2.72,FR,1701981941
325,beitbridge,-22.2167,30.0,23.69,61,0,6.42,ZW,1701981941
326,new bern,35.1085,-77.0441,11.1,48,0,4.12,US,1701981942
327,vodnyy,63.5046,53.4095,-31.99,100,26,1.28,RU,1701981942
328,de aar,-30.6497,24.0123,24.8,32,92,4.93,ZA,1701981942
329,goz beida,13.95,20.55,23.75,14,63,3.32,TD,1701981942
330,kenora,49.8167,-94.4337,5.54,65,75,4.12,CA,1701981775
331,melfort,52.8667,-104.6177,1.07,93,100,5.66,CA,1701981942
332,sibiti,-3.6819,13.3499,21.44,95,100,0.46,CG,1701981942
333,armacao de buzios,-22.7469,-41.8817,36.03,77,0,9.55,BR,1701981812
334,sur,22.5667,59.5289,22.41,50,0,0.6,OM,1701981943
335,seaside,36.6111,-121.8516,16.42,71,0,3.6,US,1701981711
336,praia,14.9215,-23.5087,24.3,73,75,7.2,CV,1701981943
337,mudanjiang,44.5833,129.6,-9.0,80,100,0.48,CN,1701981943
338,tukrah,32.5341,20.5791,17.59,69,65,5.22,LY,1701981943
339,kodiak,57.79,-152.4072,0.73,86,100,9.77,US,1701981943
340,thunder bay,48.4001,-89.3168,2.99,80,75,3.6,CA,1701981943
341,waimea,20.0231,-155.6717,23.59,87,0,2.68,US,1701981944
342,segezha,63.7415,34.3222,-19.21,98,98,1.93,RU,1701981944
343,tocache,-8.1842,-76.5125,28.68,71,97,1.52,PE,1701981944
344,kourou,5.1552,-52.6478,29.03,86,32,3.88,GF,1701981944
345,nadym,65.5333,72.5167,-20.77,96,100,6.78,RU,1701981944
346,la passe,45.5549,-0.8967,12.21,95,100,4.08,FR,1701981944
347,cromwell,41.5951,-72.6454,2.8,66,100,1.54,US,1701981944
348,tibanbang,6.6315,126.1055,26.36,83,78,2.52,PH,1701981945
349,westport,41.1415,-73.3579,4.07,66,100,3.09,US,1701981945
350,hadibu,12.65,54.0333,24.93,68,96,6.53,YE,1701981945
351,aripuana,-9.1667,-60.6333,34.78,40,67,0.88,BR,1701981945
352,zeya,53.75,127.2667,-25.84,100,100,0.95,RU,1701981945
353,broken hill,-31.95,141.4333,32.49,25,100,8.58,AU,1701981945
354,talara,-4.5772,-81.2719,28.42,57,0,7.72,PE,1701981795
355,al ghayzah,16.2079,52.176,24.5,56,46,2.35,YE,1701981946
356,eldorado,-23.7869,-54.2836,26.04,83,97,1.59,BR,1701981946
357,sumenep,-7.0167,113.8667,27.02,82,100,1.73,ID,1701981946
358,kenai,60.5544,-151.2583,-5.48,92,75,5.14,US,1701981946
359,turpan,42.9333,89.1667,0.75,54,98,0.61,CN,1701981946
360,bargaal,11.2864,51.0773,23.98,65,96,4.85,SO,1701981946
361,pelabuhanratu,-6.9875,106.5514,25.92,88,100,0.78,ID,1701981947
362,zouerate,22.7187,-12.4521,20.94,26,100,3.6,MR,1701981947
363,asha,54.9973,57.2722,-24.34,98,14,2.24,RU,1701981947
364,ginir,7.1333,40.7,14.08,41,11,2.59,ET,1701981947
365,akrehamn,59.2667,5.1833,0.79,59,0,7.2,NO,1701981947
366,riberalta,-10.9833,-66.1,32.11,62,75,2.57,BO,1701981947
367,kyzyl,51.7,94.45,-20.38,81,100,0.97,RU,1701981947
368,veinticinco de mayo,-35.4323,-60.1727,27.21,48,0,1.34,AR,1701981948
369,midvagur,62.0511,-7.1939,5.46,81,75,12.35,FO,1701981948
370,ploneour-lanvern,47.9,-4.2833,12.18,87,100,4.12,FR,1701981948
371,camlidere,40.4896,32.475,3.32,84,89,2.1,TR,1701981948
372,mersa matruh,31.3525,27.2453,15.11,51,0,4.12,EG,1701981732
373,saudarkrokur,65.7461,-19.6394,-7.06,73,36,2.75,IS,1701981948
374,altai,46.3722,96.2583,-14.59,60,0,0.44,MN,1701981948
375,petropavlovsk-kamchatsky,53.0452,158.6483,-6.67,72,75,2.24,RU,1701981949
376,upington,-28.4478,21.2561,29.21,11,0,4.63,ZA,1701981949
377,mombetsu,44.3525,143.3525,-1.08,69,42,11.0,JP,1701981949
378,urangan,-25.3,152.9,24.39,72,8,6.26,AU,1701981949
379,abaza,52.655,90.0928,-14.99,85,100,2.58,RU,1701981949
380,qamdo,31.1667,97.2333,-4.95,51,100,0.15,CN,1701981949
381,touros,-5.1989,-35.4608,26.76,76,74,5.95,BR,1701981850
382,petrozavodsk,61.7849,34.3469,-14.3,92,94,0.0,RU,1701981949
383,bardsir,29.9227,56.5743,7.81,29,0,1.84,IR,1701981950
384,emerald,-23.5333,148.1667,22.41,79,0,5.56,AU,1701981950
385,bafoulabe,13.8065,-10.8321,29.42,15,79,2.35,ML,1701981940
386,edson,53.5835,-116.4356,0.08,64,0,2.57,CA,1701981950
387,karratha,-20.7377,116.8463,29.77,28,3,6.08,AU,1701981878
388,krutinka,56.0055,71.5113,-33.27,98,9,3.23,RU,1701981951
389,castillos,-34.1667,-53.8333,17.93,74,49,6.92,UY,1701981951
390,kyren,51.6828,102.1408,-20.59,98,98,0.45,RU,1701981952
391,ifakara,-8.1333,36.6833,23.09,95,100,0.79,TZ,1701981952
392,nova sintra,14.8667,-24.7167,21.73,72,100,5.05,CV,1701981952
393,kalkaman,51.9525,76.0211,-22.21,72,67,4.75,KZ,1701981953
394,kristiansund,63.1115,7.732,-1.64,69,0,2.06,NO,1701981953
395,kismayo,-0.3582,42.5454,27.24,75,7,4.64,SO,1701981953
396,ypsonas,34.6884,32.9574,14.54,88,0,1.54,CY,1701981953
397,cidreira,-30.1811,-50.2056,22.83,93,100,2.39,BR,1701981953
398,bel ombre,-4.6167,55.4167,25.91,94,40,1.54,SC,1701981953
399,tondon,10.3667,-13.35,24.96,79,54,0.88,GN,1701981954
400,kamyanyets,52.4001,23.81,-10.12,95,42,3.26,BY,1701981954
401,siocon,7.7061,122.1353,25.66,88,95,2.24,PH,1701981954
402,aykhal,66.0,111.5,-28.37,100,99,2.21,RU,1701981954
403,impfondo,1.6381,18.0667,22.09,92,28,0.34,CG,1701981954
404,ugoofaaru,5.6667,73.0,28.53,78,100,11.44,MV,1701981954
405,vadso,70.0744,29.7487,-9.91,92,75,10.29,NO,1701981954
406,zhalantun,48.0,122.7167,-13.38,97,100,1.65,CN,1701981955
407,axim,4.8699,-2.2405,26.88,80,66,3.02,GH,1701981955
408,archangelos,36.2149,28.1149,15.99,81,97,4.99,GR,1701981955
409,antalaha,-14.9003,50.2788,25.02,84,100,3.18,MG,1701981955
410,east london,-33.0153,27.9116,22.2,88,45,4.24,ZA,1701981955
411,paradip garh,20.3167,86.6167,20.94,92,67,5.39,IN,1701981955
412,ancud,-41.8697,-73.8203,14.78,63,0,4.22,CL,1701981955
413,keetmanshoop,-26.5833,18.1333,25.51,20,0,6.69,NA,1701981956
414,kailua-kona,19.6406,-155.9956,28.06,74,75,3.6,US,1701981956
415,tabas,33.5959,56.9244,12.81,22,14,0.41,IR,1701981956
416,alto araguaia,-17.3147,-53.2153,25.22,68,96,2.8,BR,1701981956
417,mahdia,35.5047,11.0622,15.97,62,0,4.99,TN,1701981956
418,lihue,21.9789,-159.3672,26.87,75,75,1.54,US,1701981957
419,tortoli,39.9256,9.6572,9.9,66,0,3.6,IT,1701981957
420,decize,46.8285,3.4619,5.06,95,100,2.92,FR,1701981957
421,berbera,10.4396,45.0143,25.27,65,29,3.9,SO,1701981957
422,lycksele,64.5954,18.6735,-7.07,93,100,3.09,SE,1701981957
423,swift current,50.2834,-107.8014,0.45,100,100,7.72,CA,1701981958
424,littlefield,33.9173,-102.3249,22.92,14,17,7.8,US,1701981958
425,gargalianoi,37.0667,21.6333,10.75,76,6,6.39,GR,1701981958
426,kafue,-15.7691,28.1814,23.65,39,2,1.92,ZM,1701981958
427,nhamunda,-2.1861,-56.7131,31.34,61,85,1.08,BR,1701981958
428,luena,-11.7833,19.9167,18.1,94,0,1.54,AO,1701981958
429,wurtulla,-26.7568,153.1256,24.61,87,38,0.89,AU,1701981959
430,gizo,-8.103,156.8419,27.93,81,96,7.31,SB,1701981959
431,dali,25.7,100.1833,10.18,97,100,0.95,CN,1701981959
432,santa cruz,-17.8,-63.1667,35.03,46,40,6.69,BO,1701981959
433,qarauyl,48.9451,79.255,-14.89,73,100,4.0,KZ,1701981959
434,hafar al-batin,28.4328,45.9708,16.32,44,0,2.06,SA,1701981959
435,hirara,24.8,125.2833,18.92,77,100,2.06,JP,1701981959
436,valdez,1.2492,-78.9831,26.01,87,71,4.45,EC,1701981960
437,glace bay,46.1969,-59.957,-1.69,74,75,5.81,CA,1701981960
438,lindsay,36.203,-119.0882,17.1,54,0,3.6,US,1701981960
439,okhotsk,59.3833,143.3,-7.36,92,100,9.34,RU,1701981960
440,hilo,19.7297,-155.09,27.57,75,100,4.12,US,1701981960
441,port lincoln,-34.7333,135.8667,21.62,60,100,1.58,AU,1701981924
442,severo-yeniseyskiy,60.3725,93.0408,-31.9,93,97,1.34,RU,1701981960
443,alaghsas,17.0187,8.0168,22.46,13,30,3.3,NE,1701981960
444,as sulayyil,20.4607,45.5779,17.14,29,7,2.59,SA,1701981961
445,newman,37.3138,-121.0208,17.79,37,17,1.34,US,1701981962
446,tai'an,36.1853,117.12,7.32,67,0,1.83,CN,1701981962
447,sona,45.4388,10.8255,2.75,93,5,2.57,IT,1701981962
448,mugia,43.1041,-9.2179,14.95,80,92,8.46,ES,1701981963
449,yokadouma,3.5167,15.05,21.19,98,47,0.94,CM,1701981963
450,grootfontein,-19.5667,18.1167,26.76,41,46,1.54,NA,1701981963
451,barra de santo antonio,-9.4047,-35.5072,27.6,77,78,4.5,BR,1701981963
452,villa gesell,-37.2639,-56.973,18.36,66,0,6.27,AR,1701981964
453,yemetsk,63.4721,41.7941,-23.51,99,73,1.42,RU,1701981964
454,arawa,-6.2132,155.5367,27.48,77,100,0.87,PG,1701981964
455,samana,19.2056,-69.3369,30.12,74,40,4.12,DO,1701981964
456,baganga,7.5739,126.56,25.31,89,29,1.78,PH,1701981964
457,auki,-8.7676,160.7034,27.2,82,99,3.54,SB,1701981965
458,tazacorte,28.629,-17.9293,20.54,78,40,4.63,ES,1701981965
459,bhamo,24.2667,97.2333,18.06,100,100,0.43,MM,1701981965
460,burang,30.25,81.1667,-13.26,55,0,2.12,CN,1701981965
461,tanumah,27.1,44.1333,19.56,24,0,3.35,SA,1701981966
462,mahina,-17.5065,-149.489,27.87,74,75,5.66,PF,1701981966
463,labasa,-16.4167,179.3833,28.59,68,96,2.54,FJ,1701981966
464,tofol,5.3248,163.0078,28.32,81,100,7.75,FM,1701981966
465,joshimath,30.5667,79.5667,6.37,21,0,3.76,IN,1701981966
466,dolbeau-mistassini,48.8763,-72.212,-10.64,88,9,0.96,CA,1701981967
467,ust'-kut,56.7938,105.7672,-39.76,99,78,0.89,RU,1701981967
468,mhlume,-26.0333,31.85,20.51,95,99,1.19,SZ,1701981967
469,astrea,9.4983,-73.9759,31.72,62,98,1.58,CO,1701981967
470,lander,42.833,-108.7307,7.31,55,75,11.32,US,1701981795
471,abeche,13.8292,20.8324,24.17,15,57,3.37,TD,1701981968
472,khartoum,15.5518,32.5324,24.47,25,4,5.55,SD,1701981968
473,santa elena de uairen,4.6167,-61.1333,22.36,81,100,1.89,VE,1701981968
474,tracy,37.7397,-121.4252,16.96,51,87,2.68,US,1701981969
475,upata,8.0086,-62.3989,26.56,76,92,1.89,VE,1701981969
476,mana,5.6592,-53.7767,26.57,84,29,4.77,GF,1701981969
477,coxen hole,16.3244,-86.5366,26.6,83,75,5.66,HN,1701981969
478,merritt,50.1123,-120.7942,1.29,85,100,0.87,CA,1701981970
479,krusevac,43.58,21.3339,2.2,98,100,0.92,RS,1701981970
480,huarmey,-10.0681,-78.1522,22.49,75,51,4.49,PE,1701981970
481,valley city,46.9233,-98.0032,11.29,54,0,5.14,US,1701981970
482,hammerfest,70.6634,23.6821,-4.75,63,0,6.17,NO,1701981970
483,daru,-9.0763,143.2092,26.72,76,89,3.26,PG,1701981971
484,los llanos de aridane,28.6585,-17.9182,18.86,78,40,4.63,ES,1701981971
485,cabo san lucas,22.8909,-109.9124,30.61,47,0,2.68,MX,1701981945
486,argo,37.6333,22.7333,11.55,76,0,2.19,GR,1701981971
487,puerto carreno,6.189,-67.4859,34.99,49,20,3.09,CO,1701981971
488,koson,39.0375,65.585,5.18,43,100,1.75,UZ,1701981971
489,mezhdurechenskiy,59.6,65.9333,-32.72,94,19,1.76,RU,1701981972
490,hami,42.8,93.45,-0.33,56,32,3.39,CN,1701981972
491,portland,45.5234,-122.6762,9.2,94,100,8.75,US,1701981689
492,tucuma,-0.1833,-50.05,27.67,77,99,4.04,BR,1701981972
493,olenegorsk,68.15,33.3,-18.26,97,83,2.6,RU,1701981972
494,port blair,11.6667,92.75,25.02,94,20,1.03,IN,1701981972
495,nogliki,51.8333,143.1667,-3.14,96,100,5.36,RU,1701981973
496,malpica,43.3228,-8.8105,14.01,76,81,6.33,ES,1701981973
497,st. john's,47.5649,-52.7093,-2.69,86,100,7.2,CA,1701981905
498,asau,46.4333,26.4,-3.49,97,100,0.91,RO,1701981973
499,gustavia,17.8962,-62.8498,29.53,75,6,3.13,BL,1701981974
500,beyneu,45.3167,55.2,-1.13,60,100,7.08,KZ,1701981974
501,general mosconi,-23.1851,-62.303,27.33,65,91,5.72,AR,1701981974
502,kwang binh,17.4833,106.6,19.8,76,74,1.78,VN,1701981975
503,tokoroa,-38.2333,175.8667,16.64,84,24,0.45,NZ,1701981975
504,pergamino,-33.89,-60.5736,26.21,37,0,5.77,AR,1701981975
505,acajutla,13.5928,-89.8275,30.98,54,0,3.28,SV,1701981975
506,sanctuary point,-35.1114,150.629,22.96,62,86,2.84,AU,1701981975
507,constantia,44.1833,28.65,1.5,93,100,8.66,RO,1701981845
508,chake chake,-5.2459,39.7666,25.6,89,99,3.25,TZ,1701981976
509,chukhloma,58.7525,42.6825,-16.62,99,92,0.89,RU,1701981976
510,lata,40.1629,-8.3327,13.37,97,86,2.32,PT,1701981976
511,bada,51.392,109.8717,-21.29,80,100,6.39,RU,1701981977
512,guiuan,11.0333,125.7247,27.47,81,8,5.13,PH,1701981977
513,byadgi,14.6833,75.4833,21.35,72,54,1.93,IN,1701981977
514,wewak,-3.5534,143.6268,26.28,88,100,4.52,PG,1701981977
515,raduzhny,62.0961,77.475,-25.92,88,100,3.96,RU,1701981977
516,ixtapa,20.7,-105.2,29.57,70,75,4.12,MX,1701981978
517,kolonia town,6.964,158.206,29.0,70,100,7.2,FM,1701981978
518,terrace,54.5163,-128.6035,1.23,80,75,4.12,CA,1701981978
519,northam,51.0333,-4.2167,9.66,96,100,7.25,GB,1701981978
520,namibe,-15.1961,12.1522,22.99,79,97,3.42,AO,1701981979
521,moree,-29.4667,149.85,28.11,39,10,5.52,AU,1701981979
522,taltal,-25.4,-70.4833,20.05,67,22,3.86,CL,1701981979
523,tete,-16.1564,33.5867,31.05,40,0,4.12,MZ,1701981979
524,okha,53.5739,142.9478,-3.05,95,100,7.03,RU,1701981980
525,garissa,-0.4536,39.6401,27.66,73,80,4.47,KE,1701981980
526,goure,13.9835,10.2704,21.33,16,93,3.79,NE,1701981980
527,mokhsogollokh,61.4681,128.9203,-34.71,96,100,1.17,RU,1701981894
528,taro,-8.3862,115.28,23.0,96,100,0.38,ID,1701981981
529,new norfolk,-42.7826,147.0587,13.72,55,100,1.02,AU,1701981981
530,ulladulla,-35.35,150.4667,24.17,60,81,2.84,AU,1701981981
531,port moresby,-9.4431,147.1797,22.68,100,40,2.06,PG,1701981981
532,fereydunshahr,32.941,50.121,0.93,63,88,2.02,IR,1701981982
533,tinghir,31.5157,-5.5343,15.02,33,100,0.69,MA,1701981801
534,robbah,33.2797,6.9098,12.8,53,1,2.72,DZ,1701981982
535,vernon,50.2581,-119.2691,6.53,88,98,1.03,CA,1701981915
536,nova vicosa,-17.8919,-39.3719,26.16,77,5,5.33,BR,1701981982
537,kyzyl-suu,42.3414,78.0056,1.78,45,82,3.83,KG,1701981983
538,ust'-kulom,61.6864,53.6902,-32.89,100,58,0.92,RU,1701981983
539,campbellton,48.0075,-66.6727,-4.75,81,47,3.51,CA,1701981983
540,sorong,-0.8833,131.25,27.03,84,71,2.28,ID,1701981983
541,el matama,16.7095,33.3565,24.94,32,3,4.36,SD,1701981984
542,preobrazheniye,42.9019,133.9064,-5.5,45,9,2.25,RU,1701981984
543,kralendijk,12.15,-68.2667,28.99,74,40,7.72,BQ,1701981984
544,nanning,22.8167,108.3167,12.25,60,62,2.32,CN,1701981984
545,hopelchen,19.7667,-89.85,28.92,40,52,1.79,MX,1701981979
546,collie,-33.3667,116.15,10.47,91,56,2.13,AU,1701981984
547,mongo,12.1844,18.693,25.94,17,59,2.77,TD,1701981985
548,brookings,44.3114,-96.7984,15.77,45,0,7.2,US,1701981876
549,mount isa,-20.7333,139.5,20.87,52,3,0.0,AU,1701981985
550,solnechnyy,50.7214,136.6319,-16.21,95,48,1.69,RU,1701981985
551,n'zeto,-7.2312,12.8666,26.97,77,7,2.83,AO,1701981985
552,vrangel',42.7297,133.0839,-3.52,38,11,2.28,RU,1701981986
553,san andres,12.5847,-81.7006,31.01,70,20,4.63,CO,1701981986
554,praia da vitoria,38.7333,-27.0667,18.2,82,40,8.13,PT,1701981986
555,papao,-17.75,-149.55,27.82,79,83,9.03,PF,1701981986
556,san fernando,15.0286,120.6898,26.85,87,82,1.73,PH,1701981986
557,alice springs,-23.7,133.8833,24.75,65,1,2.06,AU,1701981987
558,hotan,37.0997,79.9269,8.57,8,8,3.92,CN,1701981987
559,pitimbu,-7.4706,-34.8086,29.33,75,100,4.84,BR,1701981987
560,borogontsy,62.6683,131.1683,-35.07,95,100,2.14,RU,1701981987
561,shalqar,47.8333,59.6,-8.7,55,100,7.03,KZ,1701981987
562,lijiang,26.8688,100.2207,7.62,94,100,1.08,CN,1701981988
563,klaksvik,62.2266,-6.589,5.51,79,100,12.99,FO,1701981988
564,kirensk,57.7853,108.1119,-44.46,100,97,0.89,RU,1701981988
565,massakory,12.996,15.7293,25.24,12,53,4.5,TD,1701981988
566,anloga,5.7947,0.8973,28.03,79,100,5.0,GH,1701981989
567,sao joao da barra,-21.6403,-41.0511,29.05,84,0,8.85,BR,1701981989
568,alexandria,31.2156,29.9553,14.3,54,76,2.38,EG,1701981989
569,ivdel',60.6911,60.4206,-33.23,99,30,0.89,RU,1701981989
570,segorbe,39.8138,-0.4521,14.56,91,100,5.18,ES,1701981990
571,sao pedro do sul,-29.6206,-54.1789,25.36,78,97,4.8,BR,1701981990
572,parun,35.4207,70.9221,-2.53,46,100,2.45,AF,1701981990
573,voss,60.623,6.4229,-12.12,93,44,3.09,NO,1701981990
574,laguna,38.421,-121.4238,16.17,72,75,4.12,US,1701981991
575,north shore,-36.8,174.75,19.91,66,5,3.13,NZ,1701981991
576,porto novo,6.4965,2.6036,28.9,80,100,3.3,BJ,1701981991
577,lang son,21.8333,106.7333,15.25,61,41,1.11,VN,1701981991
578,opuwo,-18.0607,13.84,24.76,32,100,2.43,NA,1701981991
579,sao jose da coroa grande,-8.8978,-35.1478,26.12,75,86,4.28,BR,1701981992
580,bayang,7.7928,124.1917,20.09,94,74,1.11,PH,1701981992
581,island harbour,50.724,-1.2758,11.04,94,100,1.34,GB,1701981992
582,nanpiao,41.0982,120.7479,1.72,70,2,1.88,CN,1701981992
583,belyy yar,53.6039,91.3903,-20.06,77,0,3.0,RU,1701981992
584,ploudalmezeau,48.5333,-4.65,12.14,93,0,4.63,FR,1701981993
585,paita,-5.0892,-81.1144,23.29,74,27,5.93,PE,1701981993
586,shar'ya,58.3686,45.5144,-21.68,98,36,1.34,RU,1701981993
587,timmins,48.4669,-81.3331,-2.1,86,100,1.54,CA,1701981879
588,changyon,38.2508,125.0961,8.88,90,0,6.45,KP,1701981994
589,sesvete,45.8311,16.1164,3.15,87,11,0.51,HR,1701981994
590,uturoa,-16.7333,-151.4333,26.77,81,79,4.84,PF,1701981954
591,martapura,-3.4167,114.85,24.05,100,100,2.57,ID,1701981994
592,borovskoy,53.8,64.15,-26.67,96,6,2.32,KZ,1701981994
