City_ID,City,Lat,Lng,Max Temp,Humidity,Cloudiness,Wind Speed,Country,Date
0,forster,-32.1667,152.5167,24.65,80,9,4.32,AU,1701928706
1,grytviken,-54.2811,-36.5092,-1.07,83,52,10.49,GS,1701928707
2,adamstown,-25.066,-130.1015,22.58,81,44,6.12,PN,1701928707
3,invercargill,-46.4,168.35,12.83,63,98,6.7,NZ,1701928707
4,brookings,44.3114,-96.7984,4.1,70,0,2.57,US,1701928493
5,arraial do cabo,-22.9661,-42.0278,23.82,91,8,10.7,BR,1701928707
6,mirnyy,62.5353,113.9611,-42.65,64,85,0.22,RU,1701928707
7,puerto natales,-51.7236,-72.4875,3.64,94,2,2.02,CL,1701928707
8,bredasdorp,-34.5322,20.0403,20.6,70,24,3.41,ZA,1701928325
9,waitangi,-43.9535,-176.5597,14.34,94,100,4.02,NZ,1701928708
10,east wenatchee bench,47.4257,-120.2812,7.65,96,100,2.57,US,1701928708
11,west island,-12.1568,96.8225,28.99,74,75,6.17,CC,1701928708
12,tura,25.5198,90.2201,19.09,83,100,0.5,IN,1701928708
13,ilulissat,69.2167,-51.1,1.01,47,91,6.69,GL,1701928331
14,port-aux-francais,-49.35,70.2167,4.72,80,100,7.72,TF,1701928708
15,balqash,46.8481,74.995,-4.67,58,20,2.0,KZ,1701928708
16,dunedin,-45.8742,170.5036,13.24,67,75,4.66,NZ,1701928709
17,san patricio,28.017,-97.5169,18.92,85,100,3.3,US,1701928709
18,avarua,-21.2078,-159.775,25.03,83,75,6.69,CK,1701928130
19,edinburgh of the seven seas,-37.0676,-12.3116,13.99,75,11,6.04,SH,1701928709
20,qaqortoq,60.7167,-46.0333,3.6,52,100,8.91,GL,1701928709
21,afaahiti,-17.75,-149.2833,23.93,91,100,6.99,PF,1701928709
22,blackmans bay,-43.0167,147.3167,23.07,60,100,0.45,AU,1701928710
23,belyy yar,53.6039,91.3903,-15.06,72,75,4.0,RU,1701928710
24,colonia,50.9333,6.95,2.36,90,75,1.03,DE,1701928710
25,tambovka,50.0969,128.0489,-18.34,96,92,1.79,RU,1701928710
26,marcali,46.585,17.412,0.93,79,100,6.04,HU,1701928615
27,port mathurin,-19.6833,63.4167,26.29,76,15,3.14,MU,1701928710
28,dudinka,69.4058,86.1778,-22.4,97,100,4.47,RU,1701928710
29,tual,-5.6667,132.75,29.57,66,47,1.63,ID,1701928711
30,nova vicosa,-17.8919,-39.3719,24.07,85,35,2.57,BR,1701928711
31,talnakh,69.4865,88.3972,-27.11,98,100,3.23,RU,1701928711
32,hamilton,39.1834,-84.5333,1.1,87,20,3.09,US,1701928682
33,porto novo,6.4965,2.6036,26.9,88,99,1.05,BJ,1701928711
34,san pedro pochutla,15.7333,-96.4667,23.08,73,97,1.82,MX,1701928712
35,wailua homesteads,22.0669,-159.378,23.44,88,20,5.14,US,1701928712
36,ribeira grande,38.5167,-28.7,15.43,80,65,1.79,PT,1701928712
37,stanley,54.868,-1.6985,3.76,87,40,4.12,GB,1701928712
38,tiksi,71.6872,128.8694,-29.54,98,98,3.46,RU,1701928712
39,oranjemund,-28.55,16.4333,18.56,80,66,1.19,NA,1701928712
40,college,64.8569,-147.8028,-14.82,86,100,1.54,US,1701928712
41,itaituba,-4.2761,-55.9836,24.22,83,17,0.76,BR,1701928713
42,whitehorse,60.7161,-135.0538,-1.57,80,100,6.69,CA,1701928713
43,vetluzhskiy,58.3902,45.4654,-18.87,99,70,0.45,RU,1701928713
44,puerto baquerizo moreno,-0.9,-89.6,23.54,86,51,4.43,EC,1701928713
45,yellowknife,62.456,-114.3525,-7.71,93,100,3.09,CA,1701928713
46,aasiaat,68.7098,-52.8699,-7.39,84,87,5.0,GL,1701928713
47,polyarnyy,69.1989,33.4478,-14.61,96,63,5.79,RU,1701928714
48,oyo,7.85,3.9333,22.85,88,96,0.93,NG,1701928714
49,kitimat,54.0524,-128.6534,3.21,64,93,0.92,CA,1701928714
50,lander,42.833,-108.7307,7.33,75,0,2.57,US,1701928714
51,albany,42.6001,-73.9662,-2.48,79,32,2.94,US,1701928714
52,hawaiian paradise park,19.5933,-154.9731,22.24,87,75,2.06,US,1701928714
53,lebu,-37.6167,-73.65,11.44,93,8,6.4,CL,1701928714
54,gadzhiyevo,69.2551,33.3362,-15.45,97,70,5.69,RU,1701928715
55,njombe,-9.3333,34.7667,17.71,85,100,3.36,TZ,1701928715
56,hengchun,22.0042,120.7439,23.78,58,93,11.64,TW,1701928715
57,tayshet,55.9342,98.0044,-24.35,88,100,3.23,RU,1701928715
58,mount pearl,47.5166,-52.7813,-4.41,91,20,1.03,CA,1701928715
59,tughyl,47.7252,84.2063,-3.68,68,99,7.82,KZ,1701928715
60,khash,28.2211,61.2158,14.79,15,2,1.32,IR,1701928716
61,guerrero negro,27.9769,-114.0611,18.42,77,0,4.53,MX,1701928716
62,bethel,41.3712,-73.414,-0.84,73,0,1.54,US,1701928716
63,haiku-pauwela,20.9219,-156.3051,23.91,70,20,3.13,US,1701928716
64,ushuaia,-54.8,-68.3,6.81,81,75,10.8,AR,1701928716
65,kodiak,57.79,-152.4072,2.73,52,0,7.2,US,1701928421
66,carnarvon,-24.8667,113.6333,25.92,59,0,10.18,AU,1701928716
67,yeppoon,-23.1333,150.7333,29.88,65,6,7.22,AU,1701928716
68,east london,-33.0153,27.9116,20.52,83,0,3.6,ZA,1701928452
69,n'dalatando,-9.2978,14.9116,20.05,87,97,0.54,AO,1701928717
70,egilsstadir,65.2653,-14.3948,-6.05,100,100,1.54,IS,1701928717
71,grand-bourg,15.8835,-61.3148,23.97,74,1,6.78,GP,1701928717
72,taro,-8.3862,115.28,26.03,65,47,2.22,ID,1701928717
73,bonnyville,54.2668,-110.735,-0.38,73,91,0.66,CA,1701928717
74,san jose del guaviare,2.5729,-72.6459,22.83,81,91,0.5,CO,1701928717
75,petropavlovsk-kamchatsky,53.0452,158.6483,-7.53,72,20,2.24,RU,1701928718
76,saipan,15.1355,145.701,28.39,83,40,4.63,MP,1701928718
77,saint george's,12.0564,-61.7485,26.82,89,20,6.69,GD,1701928718
78,cartagena,10.3997,-75.5144,26.79,89,40,4.12,CO,1701928718
79,turpan,42.9333,89.1667,6.56,34,76,0.71,CN,1701928718
80,olonkinbyen,70.9221,-8.7187,-3.51,84,100,6.02,SJ,1701928718
81,kailua-kona,19.6406,-155.9956,25.98,77,100,0.45,US,1701928718
82,banda aceh,5.5577,95.3222,29.78,70,45,4.35,ID,1701928425
83,mojacar,37.1214,-1.8552,11.34,85,53,0.74,ES,1701928719
84,schuylkill haven,40.6307,-76.1711,-0.32,73,26,1.34,US,1701928719
85,tuy hoa,13.0833,109.3,26.55,80,81,4.6,VN,1701928719
86,piggs peak,-25.9667,31.25,15.94,92,100,0.28,SZ,1701928719
87,holualoa,19.6228,-155.9522,23.91,77,100,0.0,US,1701928719
88,port elizabeth,-33.918,25.5701,22.83,83,40,5.14,ZA,1701928586
89,maile,-38.9466,-72.3727,9.34,99,14,0.45,CL,1701928719
90,new norfolk,-42.7826,147.0587,23.73,29,100,2.7,AU,1701928720
91,minas de marcona,-15.2119,-75.1103,14.17,87,99,4.39,PE,1701928720
92,ribeira brava,32.65,-17.0667,18.73,79,96,0.66,PT,1701928720
93,nizhneudinsk,54.9076,99.0276,-18.52,88,100,4.58,RU,1701928720
94,kapshagay,43.8833,77.0833,2.88,54,100,3.42,KZ,1701928720
95,vilyuysk,63.7553,121.6247,-45.56,100,85,1.34,RU,1701928720
96,butembo,0.15,29.2833,18.33,85,1,0.53,CD,1701928721
97,newman,37.3138,-121.0208,13.13,86,20,1.19,US,1701928721
98,pokhvistnevo,53.6524,52.1274,-20.25,98,48,1.55,RU,1701928721
99,punta arenas,-53.15,-70.9167,7.06,81,0,9.26,CL,1701928607
100,iqaluit,63.7506,-68.5145,-13.15,78,0,1.03,CA,1701928721
101,lagoa,39.05,-27.9833,16.95,69,33,8.97,PT,1701928721
102,lazaro cardenas,17.9583,-102.2,23.81,83,91,2.23,MX,1701928722
103,laguna,38.421,-121.4238,13.16,93,0,4.12,US,1701928722
104,isafjordur,66.0755,-23.124,-2.43,79,30,3.68,IS,1701928722
105,hermanus,-34.4187,19.2345,20.84,68,4,3.26,ZA,1701928722
106,sitka,57.0531,-135.33,4.94,75,75,4.12,US,1701928722
107,kihoku-cho,33.2559,132.6834,12.21,48,15,7.11,JP,1701928722
108,anadyr,64.75,177.4833,-19.72,84,100,14.0,RU,1701928722
109,tafi viejo,-26.732,-65.2592,20.91,100,100,2.06,AR,1701928722
110,san antonio de pale,-1.4014,5.6325,25.91,85,81,4.86,GQ,1701928723
111,severo-yeniseyskiy,60.3725,93.0408,-32.46,87,35,0.45,RU,1701928723
112,merizo village,13.2658,144.6691,31.31,81,80,6.44,GU,1701928723
113,miyazu,35.5333,135.1833,10.11,48,49,8.78,JP,1701928723
114,quellon,-43.1167,-73.6167,6.88,91,3,1.74,CL,1701928723
115,castillos,-34.1667,-53.8333,17.89,96,58,2.13,UY,1701928723
116,san julian,21.0167,-102.1667,11.91,88,100,0.46,MX,1701928723
117,zhangatas,43.5667,69.75,-1.15,52,99,4.98,KZ,1701928723
118,bilibino,68.0546,166.4372,-33.09,100,100,1.25,RU,1701928724
119,taulaga,-11.0553,-171.0883,28.74,77,80,4.31,AS,1701928724
120,constantia,44.1833,28.65,2.38,88,100,7.75,RO,1701928724
121,atafu village,-8.5421,-172.5159,29.24,75,82,3.52,TK,1701928724
122,puerto cabezas,14.0351,-83.3888,24.6,90,45,3.6,NI,1701928724
123,nemuro,43.3236,145.575,8.61,93,100,14.71,JP,1701928724
124,queenstown,-31.8976,26.8753,19.98,66,81,1.27,ZA,1701928725
125,kharabali,47.4196,47.2568,-1.62,64,100,7.66,RU,1701928725
126,kudahuvadhoo,2.6708,72.8944,26.67,85,100,7.58,MV,1701928725
127,trujillo,-8.116,-79.03,18.98,88,100,3.09,PE,1701928725
128,tazovsky,67.4667,78.7,-21.09,96,100,6.8,RU,1701928725
129,stenungsund,58.0705,11.8181,-2.67,92,100,4.65,SE,1701928725
130,al mutayrifi,25.4788,49.5576,15.19,19,0,1.73,SA,1701928725
131,kataba,13.9833,44.3833,16.49,25,21,1.07,YE,1701928725
132,barra de santo antonio,-9.4047,-35.5072,22.6,86,36,3.57,BR,1701928726
133,rongelap,11.1635,166.8941,27.47,81,82,10.09,MH,1701928726
134,pacasmayo,-7.4006,-79.5714,19.38,87,82,4.65,PE,1701928726
135,koh kong,11.6175,102.9806,28.41,75,48,2.87,KH,1701928726
136,margaret river,-33.95,115.0667,20.13,55,100,7.63,AU,1701928726
137,sabang,5.8933,95.3214,27.74,77,64,4.36,ID,1701928726
138,port moresby,-9.4431,147.1797,27.54,73,99,4.12,PG,1701928726
139,abra pampa,-22.7205,-65.697,13.06,67,28,4.15,AR,1701928726
140,gorontalo,0.5412,123.0595,29.24,82,55,1.07,ID,1701928727
141,veinticinco de mayo,-35.4323,-60.1727,17.21,97,90,1.34,AR,1701928727
142,susuman,62.7833,148.1667,-43.9,96,93,0.45,RU,1701928727
143,aspen,39.1911,-106.8175,-3.61,73,0,0.0,US,1701928486
144,charters towers,-20.1,146.2667,34.5,27,2,7.05,AU,1701928727
145,hailin,44.5833,129.4167,-8.01,67,18,7.03,CN,1701928727
146,lihue,21.9789,-159.3672,23.77,85,20,5.14,US,1701928727
147,enewetak,11.3474,162.3373,27.73,81,59,9.71,MH,1701928727
148,ancud,-41.8697,-73.8203,8.65,91,48,1.05,CL,1701928728
149,empalme,27.9667,-110.8167,20.99,38,6,2.52,MX,1701928602
150,cadale,2.7603,46.3222,27.49,62,76,7.9,SO,1701928728
151,salinopolis,-0.6136,-47.3561,27.2,83,75,5.81,BR,1701928728
152,santyoku,37.4406,129.1708,9.44,50,4,5.19,KR,1701928728
153,inyati,-19.6756,28.8469,20.03,56,49,4.84,ZW,1701928728
154,hadibu,12.65,54.0333,25.58,66,89,6.94,YE,1701928728
155,saldanha,-33.0117,17.9442,16.03,78,0,3.25,ZA,1701928728
156,northam,51.0333,-4.2167,11.25,95,100,9.83,GB,1701928728
157,katsuura,35.1333,140.3,16.97,53,0,15.07,JP,1701928729
158,onega,63.9061,38.1404,-20.98,97,64,1.98,RU,1701928729
159,strelka,58.0728,93.0344,-26.8,76,100,2.54,RU,1701928729
160,makoua,0.0069,15.6333,22.98,94,100,0.33,CG,1701928729
161,alice springs,-23.7,133.8833,38.75,18,18,0.0,AU,1701928729
162,chonchi,-42.6128,-73.8092,8.56,92,27,1.22,CL,1701928729
163,jamestown,42.097,-79.2353,0.77,97,100,3.09,US,1701928525
164,pisco,-13.7,-76.2167,19.03,88,0,4.63,PE,1701928730
165,smarhon,54.4791,26.3934,-9.22,91,100,3.52,BY,1701928730
166,palopo,-2.9996,120.1921,28.68,84,90,2.43,ID,1701928730
167,bandarbeyla,9.4942,50.8122,26.23,55,100,10.36,SO,1701928730
168,east ballina,-28.8667,153.5833,29.89,67,0,6.31,AU,1701928730
169,chibougamau,49.9168,-74.3659,-13.21,85,100,0.0,CA,1701928731
170,howard springs,-12.497,131.047,34.99,66,33,3.26,AU,1701928731
171,inongo,-1.95,18.2667,21.34,98,100,1.74,CD,1701928731
172,hohhot,40.8106,111.6522,6.16,26,0,3.0,CN,1701928731
173,temascalcingo,19.9167,-100.0,11.23,87,100,2.27,MX,1701928731
174,campo do brito,-10.7333,-37.4933,20.97,94,0,0.86,BR,1701928731
175,sarina,-21.4333,149.2167,30.15,41,5,6.16,AU,1701928732
176,cowra,-33.8333,148.6833,33.56,23,99,6.68,AU,1701928732
177,notodden,59.5594,9.2585,-5.56,92,98,1.61,NO,1701928732
178,iskateley,67.6803,53.1512,-14.45,96,100,4.19,RU,1701928732
179,kushiro,42.975,144.3747,9.53,93,75,7.2,JP,1701928732
180,noosa heads,-26.3833,153.15,29.08,67,0,3.81,AU,1701928733
181,k'asp'i,41.9252,44.4257,8.25,84,100,0.52,GE,1701928733
182,itapirapua,-15.8233,-50.6133,24.62,64,36,2.25,BR,1701928733
183,saint-pierre,-21.3393,55.4781,27.82,69,100,6.17,RE,1701928733
184,lautoka,-17.6167,177.4667,29.92,70,75,3.6,FJ,1701928733
185,utrik,11.2278,169.8474,27.42,81,74,10.54,MH,1701928733
186,aioun,16.6614,-9.6149,19.41,15,31,4.34,MR,1701928733
187,san nicolas,18.1725,120.5953,29.95,70,40,6.69,PH,1701928733
188,glace bay,46.1969,-59.957,-0.02,86,100,5.36,CA,1701928734
189,el nido,11.1858,119.3956,29.25,74,75,4.59,PH,1701928734
190,hoshcha,50.6003,26.6744,-6.29,91,100,4.57,UA,1701928734
191,papatowai,-46.5619,169.4708,13.31,61,96,6.5,NZ,1701928734
192,kolonia town,6.964,158.206,29.0,74,100,4.12,FM,1701928734
193,uturoa,-16.7333,-151.4333,25.83,83,100,8.6,PF,1701928734
194,masterton,-40.9597,175.6575,17.16,62,98,1.68,NZ,1701928735
195,sao joao da ponte,-15.9292,-44.0078,18.8,64,17,2.02,BR,1701928735
196,fort bragg,35.139,-79.006,3.91,66,0,3.09,US,1701928735
197,thompson,55.7435,-97.8558,-8.91,92,0,1.03,CA,1701928735
198,novodvinsk,64.4165,40.8122,-21.79,96,64,1.7,RU,1701928735
199,yuzhno-kurilsk,44.0306,145.8556,7.43,84,100,10.65,RU,1701928736
200,contai,21.7786,87.7536,22.21,79,100,4.39,IN,1701928736
201,paita,-5.0892,-81.1144,20.16,85,72,4.46,PE,1701928736
202,chernyshevskiy,63.0128,112.4714,-41.18,100,93,0.24,RU,1701928736
203,cidreira,-30.1811,-50.2056,22.22,95,100,2.51,BR,1701928624
204,mahina,-17.5065,-149.489,24.87,88,75,3.6,PF,1701928736
205,silute,55.3489,21.4831,-5.03,95,100,4.48,LT,1701928736
206,sandy,40.572,-111.8606,11.31,50,0,11.83,US,1701928736
207,mando,10.7167,6.5667,21.16,18,83,3.47,NG,1701928736
208,eraan,9.0629,117.7016,29.61,77,84,4.32,PH,1701928737
209,mar del plata,-38.0023,-57.5575,16.01,94,100,4.47,AR,1701928737
210,longyearbyen,78.2186,15.6401,-4.09,58,20,7.72,SJ,1701928737
211,farkhar,36.5729,69.8578,15.85,13,4,0.78,AF,1701928737
212,fale old settlement,-9.3852,-171.2468,29.48,74,55,3.08,TK,1701928737
213,pervomayskoye,43.919,46.7102,3.86,94,100,7.49,RU,1701928737
214,suva,-18.1416,178.4415,28.71,74,75,3.09,FJ,1701928737
215,gornyy,55.1153,83.9059,-22.25,90,100,3.74,RU,1701928738
216,bamboo flat,11.7,92.7167,30.05,79,40,2.06,IN,1701928738
217,kushnarenkovo,55.105,55.3508,-28.06,99,17,1.17,RU,1701928738
218,port alfred,-33.5906,26.891,21.77,82,23,2.68,ZA,1701928738
219,nadi,-17.8,177.4167,30.0,70,75,3.6,FJ,1701928738
220,cabedelo,-6.9811,-34.8339,25.37,80,57,2.97,BR,1701928738
221,kill devil hills,36.0307,-75.676,5.01,65,0,5.66,US,1701928738
222,mili,6.0815,171.735,27.88,82,70,9.23,MH,1701928738
223,badger,64.8,-147.5333,-14.86,86,100,1.54,US,1701928739
224,udachny,66.4167,112.4,-25.49,99,100,0.79,RU,1701928739
225,petatlan,17.5167,-101.2667,23.57,87,99,1.79,MX,1701928603
226,ixtapa,20.7,-105.2,26.24,79,40,1.28,MX,1701928739
227,pul-e khumri,35.9446,68.7151,15.86,19,23,0.88,AF,1701928739
228,cholpon-ata,42.6494,77.0823,7.03,62,72,0.21,KG,1701928739
229,weno,7.4515,151.8468,25.97,100,100,2.57,FM,1701928739
230,rio grande,-32.035,-52.0986,19.41,92,63,2.83,BR,1701928508
231,zouerate,22.7187,-12.4521,18.61,34,100,2.62,MR,1701928740
232,howrah,22.5892,88.3103,20.0,88,100,2.57,IN,1701928740
233,longboat key,27.4125,-82.659,14.0,71,0,2.06,US,1701928740
234,shalqar,47.8333,59.6,-5.92,54,59,4.51,KZ,1701928740
235,mermoz boabab,14.7065,-17.4758,22.31,69,51,6.39,SN,1701928740
236,kapa'a,22.0752,-159.319,24.18,88,20,5.14,US,1701928740
237,el calafate,-50.3408,-72.2768,9.28,70,17,1.42,AR,1701928740
238,hammerfest,70.6634,23.6821,-5.75,68,30,9.26,NO,1701928740
239,kalevala,65.2,31.1667,-22.73,100,100,0.89,RU,1701928741
240,anna regina,7.2644,-58.5077,25.65,83,96,4.66,GY,1701928741
241,kamyshlov,56.8428,62.7111,-30.34,92,9,2.75,RU,1701928741
242,ath thawrah,35.8469,38.5443,14.66,77,86,2.37,SY,1701928741
243,osakarovka,50.565,72.5692,-16.7,81,100,4.21,KZ,1701928741
244,vilyuchinsk,52.9306,158.4028,-6.71,81,5,1.66,RU,1701928741
245,keflavik,64.0049,-22.5624,2.95,64,0,8.75,IS,1701928742
246,georgetown,5.4112,100.3354,31.97,62,20,4.63,MY,1701928742
247,zhangye,38.9342,100.4517,12.73,9,10,3.96,CN,1701928742
248,kingscliff,-28.2667,153.5667,28.74,69,2,4.63,AU,1701928742
249,alo,7.4178,6.7371,24.46,78,55,0.67,NG,1701928742
250,dryden,49.7833,-92.7503,-1.84,93,20,3.09,CA,1701928742
251,floro,61.5996,5.0328,5.54,86,75,5.14,NO,1701928742
252,robore,-18.3333,-59.75,23.1,83,37,1.48,BO,1701928743
253,barentu,15.1139,37.5928,24.77,40,28,1.35,ER,1701928443
254,usman',52.0466,39.7288,-6.98,95,98,3.13,RU,1701928743
255,kabansk,52.0486,106.6528,-8.93,88,100,2.41,RU,1701928743
256,ust-nera,64.5667,143.2,-45.22,92,73,0.78,RU,1701928743
257,portstewart,55.1813,-6.714,8.66,89,100,13.4,GB,1701928744
258,posto fiscal rolim de moura,-13.0833,-62.2667,22.97,92,32,0.63,BR,1701928744
259,codrington,-38.2667,141.9667,19.26,46,44,5.6,AU,1701928744
260,sao vicente,-23.9631,-46.3919,31.26,78,20,1.32,BR,1701928576
261,upata,8.0086,-62.3989,22.33,96,89,3.32,VE,1701928744
262,bubaque,11.2833,-15.8333,27.32,67,7,2.51,GW,1701928744
263,port lincoln,-34.7333,135.8667,22.91,53,100,3.09,AU,1701928744
264,kirakira,-10.4544,161.9205,26.4,86,92,5.1,SB,1701928745
265,tralee,52.2704,-9.7026,9.77,96,100,5.41,IE,1701928745
266,brandon,27.9378,-82.2859,12.8,79,0,0.45,US,1701928705
267,kununurra,-15.7667,128.7333,37.99,32,40,4.12,AU,1701928745
268,lompoc,34.6391,-120.4579,13.4,84,100,3.13,US,1701928745
269,aras-asan,8.8908,126.3033,27.76,83,94,5.01,PH,1701928745
270,sisimiut,66.9395,-53.6735,-4.43,68,100,1.72,GL,1701928745
271,pathein,16.7833,94.7333,31.03,54,32,2.77,MM,1701928746
272,yemetsk,63.4721,41.7941,-24.62,97,48,1.52,RU,1701928746
273,vila velha,-20.3297,-40.2925,24.97,90,20,2.57,BR,1701928529
274,okhotsk,59.3833,143.3,-14.79,97,100,5.05,RU,1701928746
275,port douglas,-16.4833,145.4667,27.78,64,72,5.12,AU,1701928746
276,vadso,70.0744,29.7487,-18.51,97,99,4.42,NO,1701928746
277,kenai,60.5544,-151.2583,-6.59,92,0,2.06,US,1701928746
278,nar'yan-mar,67.6713,53.087,-14.39,96,100,4.25,RU,1701928747
279,rakvere,59.3464,26.3558,-13.42,99,97,2.96,EE,1701928747
280,caucete,-31.6518,-68.2811,22.11,28,8,2.18,AR,1701928747
281,pico truncado,-46.7949,-67.9573,8.78,68,30,1.78,AR,1701928747
282,nuku'alofa,-21.1333,-175.2,26.54,74,6,2.5,TO,1701928747
283,island harbour,50.724,-1.2758,8.45,92,100,6.26,GB,1701928747
284,mount gambier,-37.8333,140.7667,22.95,36,42,3.62,AU,1701928747
285,staryy dobrotvir,50.2315,24.377,-2.11,86,100,5.26,UA,1701928748
286,crane,31.3974,-102.3501,12.77,73,100,7.79,US,1701928748
287,daru,-9.0763,143.2092,28.71,69,100,3.84,PG,1701928748
288,gizo,-8.103,156.8419,28.07,82,100,10.29,SB,1701928748
289,palmer,42.1584,-72.3287,-1.32,67,11,2.24,US,1701928519
290,la ronge,55.1001,-105.2842,0.14,74,75,2.57,CA,1701928748
291,lesosibirsk,58.2358,92.4828,-25.61,73,100,2.31,RU,1701928748
292,puerto ayora,-0.7393,-90.3518,23.84,85,77,3.35,EC,1701928748
293,tamanrasset,22.785,5.5228,12.95,22,0,2.57,DZ,1701928749
294,mabaruma,8.2,-59.7833,22.48,100,100,0.88,GY,1701928749
295,nouadhibou,20.931,-17.0347,19.99,77,100,5.66,MR,1701928749
296,namsos,64.4662,11.4957,-2.97,67,75,3.09,NO,1701928749
297,tarrafal,15.2833,-23.7667,22.44,69,97,4.73,CV,1701928749
298,grand falls-windsor,48.9332,-55.6649,-9.44,97,30,1.42,CA,1701928750
299,broome,42.2506,-75.833,-1.57,78,100,4.12,US,1701928750
300,hard bargain,26.3167,-77.5667,21.1,58,77,10.18,BS,1701928750
301,jarabulus,36.8175,38.0111,11.19,78,98,1.88,SY,1701928750
302,turkmenbasy,40.0222,52.9552,6.43,75,0,4.12,TM,1701928750
303,papanasam,10.9333,79.2833,30.44,65,66,1.57,IN,1701928750
304,kashgar,39.4547,75.9797,13.56,15,0,2.0,CN,1701928750
305,khon kaen,16.5,102.0833,29.45,47,45,1.96,TH,1701928751
306,ati,13.2154,18.3353,21.71,15,9,3.52,TD,1701928751
307,sokol,59.4617,40.1206,-12.51,97,94,1.48,RU,1701928751
308,st. john's,47.5649,-52.7093,-3.95,90,20,1.34,CA,1701928751
309,decatur,39.8403,-88.9548,3.26,81,0,6.17,US,1701928470
310,hailey,43.5196,-114.3153,4.33,72,100,1.54,US,1701928751
311,papao,-17.75,-149.55,24.82,93,100,7.91,PF,1701928751
312,poronaysk,49.2167,143.1167,2.87,99,100,5.9,RU,1701928752
313,port macquarie,-31.4333,152.9167,24.94,70,6,3.84,AU,1701928574
314,raja,8.4596,25.678,24.49,17,11,3.23,SS,1701928752
315,omidiyeh,30.7597,49.705,15.93,59,0,0.0,IR,1701928752
316,wanning,18.8003,110.3967,24.31,61,36,5.49,CN,1701928753
317,potsdam,52.3989,13.0657,1.72,93,100,1.54,DE,1701928753
318,jordan,31.0,36.0,12.05,72,80,2.05,JO,1701928753
319,lianzhou,24.7811,112.3825,23.04,30,55,0.44,CN,1701928753
320,hasaki,35.7333,140.8333,20.16,50,0,15.1,JP,1701928753
321,bel ombre,-4.6167,55.4167,29.91,70,40,6.69,SC,1701928753
322,bunia,1.5667,30.25,20.69,81,58,1.18,CD,1701928753
323,tromso,69.6496,18.957,-3.99,63,0,9.77,NO,1701928754
324,chapaev,50.2,51.1667,-6.07,91,90,2.84,KZ,1701928754
325,chokwe,-24.5333,32.9833,25.83,69,59,3.08,MZ,1701928754
326,verkhnevilyuysk,63.4453,120.3167,-44.18,100,77,0.49,RU,1701928754
327,jayapura,-2.5333,140.7,30.66,77,94,4.56,ID,1701928754
328,tambacounda,13.7539,-13.7586,23.58,17,13,1.76,SN,1701928755
329,lecheng,25.1238,113.3254,22.49,34,39,1.19,CN,1701928755
330,terenos,-20.4422,-54.8603,26.84,73,0,1.54,BR,1701928755
331,chalisgaon,20.4667,75.0167,24.64,64,45,2.91,IN,1701928755
332,loikaw,19.6742,97.2094,25.4,71,29,1.56,MM,1701928755
333,saynshand,44.8824,110.1163,0.47,72,22,5.2,MN,1701928755
334,zaragoza,41.6561,-0.8773,3.25,93,0,2.06,ES,1701928465
335,zhangjiakou shi xuanhua qu,40.6103,115.0447,6.9,32,39,0.64,CN,1701928756
336,roccella ionica,38.322,16.4009,13.79,66,100,4.06,IT,1701928756
337,inderbor,48.55,51.7833,-5.01,81,100,5.68,KZ,1701928756
338,magistral'nyy,56.1725,107.4458,-35.35,99,90,2.46,RU,1701928756
339,tabou,4.423,-7.3528,25.5,85,28,1.29,CI,1701928756
340,terenozek,45.05,64.9833,-2.84,43,88,6.2,KZ,1701928757
341,dauphin,51.1494,-100.0502,5.08,60,100,4.12,CA,1701928757
342,arys,42.4252,68.795,4.44,52,100,3.73,KZ,1701928757
343,al qusayr,34.5091,36.5798,14.28,68,96,0.94,SY,1701928757
344,hithadhoo,-0.6,73.0833,27.39,78,94,3.82,MV,1701928757
345,hancheng,32.5186,112.3522,20.12,28,0,3.58,CN,1701928757
346,melekeok village,7.4957,134.6367,30.31,74,75,5.14,PW,1701928758
347,port-vila,-17.7338,168.3219,26.78,83,75,6.17,VU,1701928758
348,gaigeturi,33.4644,126.3183,14.03,38,0,3.6,KR,1701928758
349,vrangel',42.7297,133.0839,-0.3,41,14,9.06,RU,1701928758
350,astrakhan,46.3497,48.0408,-0.05,92,100,10.0,RU,1701928758
351,sungai raya,0.7,108.9,28.35,79,100,2.21,ID,1701928758
352,khandyga,62.6667,135.6,-39.71,95,98,1.14,RU,1701928758
353,kapit,2.0167,112.9333,25.31,93,100,0.69,MY,1701928759
354,palikir - national government center,6.9248,158.1611,28.41,74,100,4.12,FM,1701928466
355,pahlgam,34.0333,75.3333,5.34,39,0,1.11,IN,1701928759
356,colesberg,-30.72,25.0972,21.01,58,44,6.03,ZA,1701928759
357,watertown,42.3709,-71.1828,-2.99,74,0,6.69,US,1701928550
358,laojunmiao,39.8333,97.7333,7.85,12,58,1.9,CN,1701928759
359,wuxue,29.8506,115.5525,22.46,25,0,3.25,CN,1701928759
360,woodstock,43.1334,-80.7497,0.37,94,81,2.68,CA,1701928759
361,menongue,-14.6585,17.691,22.43,65,87,2.05,AO,1701928760
362,long beach,33.767,-118.1892,16.6,90,38,1.34,US,1701928510
363,can tho,10.0333,105.7833,30.99,70,40,0.51,VN,1701928760
364,pervomayskiy,53.2485,40.2871,-12.13,96,97,3.23,RU,1701928760
365,petawawa,45.9001,-77.3328,-10.79,88,99,0.75,CA,1701928489
366,vorkuta,67.5,64.0,-26.88,99,99,1.82,RU,1701928760
367,al jawf,29.5,38.75,15.15,55,2,2.81,SA,1701928760
368,mandalgovi,45.7625,106.2708,2.81,45,38,10.13,MN,1701928760
369,dunkwa,5.9656,-1.78,22.99,94,36,0.58,GH,1701928761
370,nizhnesortymskiy,62.4397,71.7603,-34.34,91,7,3.84,RU,1701928761
371,karyes,37.3,22.5,6.78,92,100,0.86,GR,1701928761
372,tobelo,1.7284,128.0095,29.67,70,84,0.8,ID,1701928761
373,mossel bay,-34.1831,22.146,16.96,76,0,3.47,ZA,1701928761
374,aykhal,66.0,111.5,-25.72,100,100,1.62,RU,1701928761
375,talcahuano,-36.7167,-73.1167,12.82,94,0,3.09,CL,1701928761
376,yaren,-0.5472,166.916,27.86,82,100,7.6,NR,1701928761
377,pyetrykaw,52.1289,28.4921,-10.74,94,99,3.5,BY,1701928762
378,bakchar,57.0186,82.0711,-27.87,91,83,2.16,RU,1701928762
379,tulum,20.2167,-87.4667,20.44,85,100,2.46,MX,1701928516
380,birjand,32.8663,59.2211,5.26,13,0,2.06,IR,1701928762
381,zhanaozen,43.3,52.8,1.25,55,100,10.96,KZ,1701928762
382,sharm el-sheikh,27.8518,34.305,21.08,52,0,4.63,EG,1701928763
383,babu,24.4167,111.5167,23.67,26,48,0.85,CN,1701928763
384,opuwo,-18.0607,13.84,23.42,53,67,0.98,NA,1701928763
385,kangiwa,12.5521,3.8187,20.02,17,33,4.29,NG,1701928763
386,shimoda,34.6667,138.95,18.2,63,0,14.58,JP,1701928763
387,chittarkonda,18.1167,82.0833,26.79,66,85,2.19,IN,1701928763
388,olyokminsk,60.3736,120.4264,-39.21,96,81,0.29,RU,1701928763
389,geraldton,-28.7667,114.6,25.23,53,75,9.26,AU,1701928685
390,prince rupert,54.3161,-130.3201,5.83,84,75,6.17,CA,1701928764
391,zelenogradsk,54.9589,20.4767,-1.97,89,100,3.0,RU,1701928764
392,angatuba,-23.4897,-48.4128,22.15,78,27,0.64,BR,1701928764
393,rudbar,30.15,62.6,18.15,22,37,1.16,AF,1701928764
394,batroun,34.2553,35.6581,18.64,73,100,5.51,LB,1701928764
395,labe,11.3182,-12.2833,17.21,40,0,0.48,GN,1701928510
396,ponta delgada,37.7333,-25.6667,18.44,82,40,3.09,PT,1701928765
397,wainwright,52.839,-110.8572,1.59,65,100,3.7,CA,1701928765
398,yelizovo,53.1873,158.3805,-6.78,67,20,1.0,RU,1701928765
399,karasburg,-28.0167,18.75,20.06,34,0,4.15,NA,1701928765
400,midvagur,62.0511,-7.1939,5.46,70,40,10.29,FO,1701928765
401,ihosy,-22.4,46.1167,25.74,57,49,6.67,MG,1701928765
402,nguigmi,14.2495,13.1092,19.42,27,6,5.27,NE,1701928765
403,pyu,18.4833,96.4333,31.5,55,81,0.85,MM,1701928766
404,flin flon,54.7682,-101.865,-6.41,96,89,1.92,CA,1701928766
405,vila franca do campo,37.7167,-25.4333,18.27,99,100,3.37,PT,1701928766
406,hilo,19.7297,-155.09,22.36,88,75,2.06,US,1701928553
407,cabo san lucas,22.8909,-109.9124,24.17,78,2,0.45,MX,1701928634
408,mohale's hoek,-30.1514,27.4769,17.87,72,100,4.49,LS,1701928766
409,bernay,49.1667,0.6667,4.94,89,100,1.34,FR,1701928766
410,edgewater,28.9889,-80.9023,15.01,62,59,4.88,US,1701928766
411,ust'-ilimsk,58.0006,102.6619,-36.42,91,17,1.79,RU,1701928767
412,pangai,-19.8,-174.35,26.68,79,9,4.4,TO,1701928767
413,luderitz,-26.6481,15.1594,18.69,70,27,4.52,NA,1701928767
414,salaga,8.5508,-0.5188,25.46,49,14,1.82,GH,1701928767
415,bontang,0.1333,117.5,29.38,74,94,0.74,ID,1701928767
416,erzincan,39.75,39.5,4.86,81,88,0.92,TR,1701928767
417,margate,51.3813,1.3862,6.28,86,99,3.58,GB,1701928767
418,lockport,41.5895,-88.0578,4.44,86,0,6.71,US,1701928500
419,kone,-21.0595,164.8658,26.79,58,98,4.5,NC,1701928768
420,ar ruways,24.1103,52.7306,24.03,53,47,1.47,AE,1701928768
421,jinka,5.65,36.65,23.06,48,2,0.95,ET,1701928768
422,hushitai,41.9322,123.5114,4.95,38,22,4.34,CN,1701928768
423,berezovyy,51.6667,135.7,-9.37,91,100,0.54,RU,1701928768
424,kidal,18.4411,1.4078,21.08,17,0,2.94,ML,1701928768
425,bahia blanca,-38.7196,-62.2724,14.34,77,29,1.79,AR,1701928637
426,molepolole,-24.4066,25.4951,20.08,56,42,9.08,BW,1701928769
427,worland,44.0169,-107.9554,6.64,93,0,3.09,US,1701928769
428,novoorsk,51.381,58.9813,-14.64,82,10,2.42,RU,1701928769
429,anderson,34.5334,-82.6499,3.21,85,0,0.0,US,1701928769
430,el abiodh sidi cheikh,32.893,0.5484,10.06,84,26,2.41,DZ,1701928769
431,tak,16.5833,98.8333,26.84,58,30,1.1,TH,1701928769
432,freetown,8.484,-13.2299,25.84,78,40,2.06,SL,1701928769
433,oamaru,-45.0784,170.9801,14.65,69,53,3.98,NZ,1701928770
434,panaba,21.2833,-88.2667,21.06,74,100,2.72,MX,1701928770
435,flying fish cove,-10.4217,105.6791,29.82,70,40,3.6,CX,1701928770
436,berezovo,63.9381,65.0419,-37.92,98,19,1.48,RU,1701928770
437,ratnagiri,16.9833,73.3,30.71,47,43,1.67,IN,1701928770
438,morehead,37.2711,-87.1764,0.55,93,0,0.0,US,1701928547
439,ngama,11.7833,17.1667,22.29,15,6,4.3,TD,1701928770
440,granada,37.25,-3.25,8.5,86,82,2.05,ES,1701928771
441,kievka,50.2619,71.5514,-15.06,70,99,3.86,KZ,1701928771
442,kashin,57.3592,37.6081,-24.72,100,99,1.21,RU,1701928771
443,la'ie,21.6477,-157.9253,25.66,77,47,3.58,US,1701928771
444,fabens,31.5023,-106.1586,14.15,32,85,2.45,US,1701928771
445,xining,36.6167,101.7667,6.27,16,0,0.92,CN,1701928771
446,pionerskiy,54.9508,20.2275,-2.09,85,100,5.84,RU,1701928772
447,sola,-13.8833,167.55,27.2,82,95,7.49,VU,1701928772
448,arauca,7.0847,-70.7591,23.14,69,72,1.34,CO,1701928772
449,kapuskasing,49.4169,-82.4331,-4.95,93,100,4.12,CA,1701928772
450,las heras,-46.5419,-68.9359,9.16,60,37,4.86,AR,1701928688
451,marquette,46.5333,-87.6335,-0.13,82,99,1.34,US,1701928773
452,miri,4.4148,114.0089,30.08,79,40,3.09,MY,1701928773
453,viedma,-40.8135,-62.9967,14.21,82,26,1.86,AR,1701928582
454,cill airne,52.05,-9.5167,10.79,96,100,5.23,IE,1701928773
455,nuuk,64.1835,-51.7216,-1.81,64,94,5.39,GL,1701928680
456,tiassale,5.8983,-4.8283,22.91,98,41,0.54,CI,1701928773
457,piti village,13.4626,144.6933,31.49,72,40,5.66,GU,1701928774
458,altay,47.8667,88.1167,-7.18,85,71,2.93,CN,1701928774
459,chernomorskoye,45.5039,32.6997,5.81,88,100,9.56,UA,1701928774
460,ebon,4.582,168.6964,28.24,81,75,8.86,MH,1701928774
461,forbes,-33.3833,148.0167,36.49,17,99,4.58,AU,1701928767
462,al hasaheisa,14.7526,33.2984,25.19,30,52,6.47,SD,1701928774
463,bathsheba,13.2167,-59.5167,26.34,83,20,7.2,BB,1701928774
464,gunjur,13.2019,-16.7339,22.04,88,0,5.14,GM,1701928774
465,gebeit,21.0667,36.3167,22.86,70,8,4.79,SD,1701928775
466,enshi,30.3,109.4833,17.89,45,0,0.9,CN,1701928775
467,taoudenni,22.6783,-3.9836,18.79,18,95,3.72,ML,1701928775
468,dakhla,23.6848,-15.958,20.22,62,100,6.38,EH,1701928573
469,shendi,16.6915,33.4341,23.75,24,81,6.11,SD,1701928775
470,phan rang-thap cham,11.5667,108.9833,30.23,56,76,6.88,VN,1701928775
471,piacabucu,-10.4056,-36.4344,24.49,85,60,3.81,BR,1701928776
472,arauco,-37.2463,-73.3175,12.63,86,0,2.27,CL,1701928776
473,magadan,59.5667,150.8,-12.1,94,100,8.21,RU,1701928776
474,college place,46.0493,-118.3883,11.12,83,100,8.23,US,1701928776
475,kattivakkam,13.2167,80.3167,30.05,70,52,1.19,IN,1701928776
476,toliara,-23.35,43.6667,30.23,54,12,5.56,MG,1701928777
477,suket,24.65,76.0333,22.86,44,15,3.69,IN,1701928777
478,soufriere,13.8562,-61.0566,27.78,91,20,6.69,LC,1701928777
479,westport,41.1415,-73.3579,1.02,72,0,2.06,US,1701928576
480,lakhimpur,27.95,80.7667,24.36,41,21,1.41,IN,1701928777
481,tolanaro,-25.0319,46.9987,27.04,65,75,6.69,MG,1701928778
482,olinda,-8.0089,-34.8553,26.85,78,40,3.6,BR,1701928778
483,sidareja,-7.4846,108.7923,31.27,56,59,2.91,ID,1701928778
484,nieuw amsterdam,5.8833,-55.0833,26.12,90,87,3.79,SR,1701928778
485,muroto-misakicho,33.2833,134.15,16.39,42,0,6.03,JP,1701928778
486,eagle point,42.4726,-122.8028,7.22,92,97,0.45,US,1701928778
487,champerico,14.3,-91.9167,25.4,85,20,2.52,GT,1701928779
488,antigonish,45.6169,-61.9986,0.46,87,78,0.89,CA,1701928779
489,whitley bay,55.0397,-1.4471,5.95,82,40,4.12,GB,1701928779
490,shizunai-furukawacho,42.3339,142.3669,9.19,90,100,8.03,JP,1701928779
491,boguchany,58.3814,97.4531,-31.19,93,38,3.13,RU,1701928779
492,bereeda,11.8704,51.0579,26.44,57,47,6.49,SO,1701928779
493,mil'kovo,55.6078,37.7956,-10.73,100,100,1.23,RU,1701928779
494,nay pyi taw,19.745,96.1297,29.71,57,59,1.76,MM,1701928780
495,batang,-6.4846,110.7083,31.42,61,93,2.56,ID,1701928780
496,klyavlino,54.2649,52.0267,-24.63,100,73,1.29,RU,1701928780
497,el casar,38.5309,-5.9251,11.11,92,90,1.37,ES,1701928780
498,kingston,17.997,-76.7936,27.53,84,20,1.54,JM,1701928632
499,niamey,13.5137,2.1098,22.16,18,47,2.06,NE,1701928571
500,tsiombe,-25.3,45.4833,27.18,48,60,8.83,MG,1701928780
501,san-pedro,4.7485,-6.6363,24.95,88,15,1.28,CI,1701928780
502,athens,37.9795,23.7162,14.53,74,0,1.54,GR,1701928722
503,malango,-2.9627,119.9001,24.25,92,99,0.84,ID,1701928781
504,hopelchen,19.7667,-89.85,19.71,84,100,1.46,MX,1701928781
505,sao felix do xingu,-6.6447,-51.995,24.01,79,14,0.33,BR,1701928781
506,kerman,30.2832,57.0788,8.92,17,0,2.06,IR,1701928678
507,eyl,7.9803,49.8164,27.37,41,82,9.24,SO,1701928781
508,san juan,-31.5375,-68.5364,22.49,28,0,4.31,AR,1701928770
509,igarka,67.4667,86.5833,-22.85,96,100,5.07,RU,1701928781
510,cox's bazar,21.4532,91.9798,26.95,72,74,2.03,BD,1701928697
511,morden,49.1919,-98.1014,4.24,87,56,1.54,CA,1701928782
512,kamaishi,39.2667,141.8833,11.81,74,61,8.62,JP,1701928782
513,kismayo,-0.3582,42.5454,29.13,69,77,6.09,SO,1701928782
514,inhambane,-23.865,35.3833,25.0,83,75,4.12,MZ,1701928782
515,hulan ergi,47.2042,123.6333,-8.88,41,3,1.65,CN,1701928782
516,villa gesell,-37.2639,-56.973,15.59,93,100,8.66,AR,1701928697
517,susa,35.8254,10.637,11.88,82,20,3.6,TN,1701928782
518,turochak,52.2576,87.1224,-12.33,90,100,4.06,RU,1701928783
519,uva,56.9908,52.1852,-28.99,99,28,1.55,RU,1701928783
520,villa de arista,22.65,-100.8333,12.99,93,100,3.84,MX,1701928783
521,hotan,37.0997,79.9269,16.24,5,2,0.92,CN,1701928783
522,jackson,42.4165,-122.8345,7.14,92,96,0.45,US,1701928783
523,ulety,51.3572,112.4849,-14.37,87,100,1.59,RU,1701928784
524,raholt,60.2667,11.1833,-10.08,89,75,1.03,NO,1701928784
525,spring creek,40.7266,-115.5859,6.01,65,51,6.03,US,1701928784
526,at taj,24.2049,23.2857,12.66,50,0,2.39,LY,1701928784
527,horta,38.5333,-28.6333,15.01,80,64,1.79,PT,1701928784
528,omdurman,15.6445,32.4777,23.31,24,76,6.6,SD,1701928784
529,shiguai,40.7058,110.2856,4.54,29,0,3.29,CN,1701928784
530,blumberg,47.8406,8.5333,-0.61,96,74,0.75,DE,1701928784
531,jumla,29.2747,82.1838,15.3,17,0,2.53,NP,1701928785
532,majene,-3.5403,118.9707,29.08,75,81,2.1,ID,1701928785
533,karliova,39.2983,41.0142,2.02,99,100,1.32,TR,1701928785
534,hirara,24.8,125.2833,22.92,60,40,7.2,JP,1701928785
535,kavaratti,10.5669,72.642,28.2,69,100,4.33,IN,1701928785
536,richards bay,-28.783,32.0377,20.31,88,100,2.92,ZA,1701928785
537,rawson,-43.3002,-65.1023,12.74,75,25,6.42,AR,1701928785
538,dara,15.3484,-15.4799,21.06,21,7,3.57,SN,1701928786
539,saint-philippe,-21.3585,55.7679,27.77,75,18,3.79,RE,1701928786
540,acarau,-2.8856,-40.12,26.75,78,71,7.85,BR,1701928550
541,adam,22.3756,57.5233,23.75,31,1,2.54,OM,1701928786
542,yefremov,53.1481,38.0992,-13.17,98,89,3.59,RU,1701928786
543,mount isa,-20.7333,139.5,37.87,19,40,5.14,AU,1701928786
544,maitum,6.0392,124.4986,29.25,76,99,2.71,PH,1701928786
545,carbonear,47.7332,-53.2148,-3.27,90,60,1.66,CA,1701928786
546,yangambi,0.8102,24.4336,22.08,97,99,1.58,CD,1701928757
547,mogocha,53.7333,119.7667,-21.64,72,16,1.03,RU,1701928787
548,obigarm,38.7173,69.7088,10.43,27,34,3.27,TJ,1701928787
549,ledyard,41.4398,-72.0142,0.08,73,100,2.57,US,1701928787
550,as sulayyil,20.4607,45.5779,15.14,30,69,3.12,SA,1701928787
551,plettenberg bay,-34.0527,23.3716,21.11,61,0,1.04,ZA,1701928787
552,leticia,-4.2153,-69.9406,25.03,94,40,0.0,CO,1701928787
553,gaiman,-43.2897,-65.4929,12.79,71,37,7.48,AR,1701928787
554,isla mujeres,21.2311,-86.731,23.98,62,100,6.29,MX,1701928787
555,magadi,12.9667,77.2333,27.09,58,76,1.39,IN,1701928788
556,aripuana,-9.1667,-60.6333,23.81,76,41,0.82,BR,1701928788
557,acapulco de juarez,16.8634,-99.8901,26.21,79,100,1.22,MX,1701928557
558,namibe,-15.1961,12.1522,23.78,85,100,1.56,AO,1701928788
559,puerto princesa,9.7392,118.7353,32.99,66,20,6.17,PH,1701928788
560,harrisonburg,38.4496,-78.8689,0.94,75,100,0.0,US,1701928788
561,al bawiti,28.3492,28.8659,15.04,44,52,1.22,EG,1701928788
562,keelung,25.1283,121.7419,23.94,55,14,5.76,TW,1701928788
563,callao,-12.0667,-77.15,20.95,82,40,4.12,PE,1701928747
564,burumburum,11.3911,8.7234,16.87,20,16,2.48,NG,1701928789
565,novokayakent,42.3937,47.9861,9.13,92,100,4.28,RU,1701928789
566,coruripe,-10.1256,-36.1756,24.28,84,50,3.88,BR,1701928789
567,patterson,37.4716,-121.1297,12.91,86,20,0.68,US,1701928789
568,swakopmund,-22.6833,14.5333,15.55,89,15,2.54,NA,1701928789
569,malpica,43.3228,-8.8105,14.63,79,100,10.71,ES,1701928789
570,lerwick,60.1545,-1.1494,5.0,66,73,10.35,GB,1701928703
